Time, Longitude, Latitude, Altitude, Roll (deg), Pitch (deg), Yaw (deg)
2024-03-10T12:10:49Z, 32.9396466456332, 33.115509600742335, 952.1950742638976, 0.09856129677642035, -0.02755290649415154, 28.441446663823363
2024-03-10T12:10:49Z, 32.93969335618681, 33.11558220325386, 952.1875730536581, 0.42295503560175424, -0.20106994593447167, 28.46155205741416
2024-03-10T12:10:49Z, 32.93974011854028, 33.11565489333528, 952.1755476873368, 0.29208750140668566, -0.47289318928305146, 28.43170027154503
2024-03-10T12:10:49Z, 32.939786927115506, 33.11572765743398, 952.149324676314, 0.6974513347471335, -0.8778513351171738, 28.470656449787555
2024-03-10T12:10:49Z, 32.93983378447841, 33.11580046878224, 952.1135650494487, 0.9235046567164603, -1.3455471581501526, 28.442194453381006
2024-03-10T12:10:49Z, 32.939880636718236, 33.115873304985655, 952.0746406595886, 0.5594339913014242, -1.7116946592990117, 28.418641619890302
2024-03-10T12:10:49Z, 32.939927496895244, 33.11594614986588, 952.0274650598467, 0.7942967790331051, -1.8428238418904472, 28.465965701242897
2024-03-10T12:10:49Z, 32.939974381145255, 33.11601898950809, 951.9760819816411, 0.9321035901637493, -1.814505749880374, 28.443020116212466
2024-03-10T12:10:49Z, 32.94002126008386, 33.116091826602535, 951.929017276293, 0.30640320724452486, -1.7910475639240475, 28.374734345983967
2024-03-10T12:10:49Z, 32.94006811164561, 33.11616466370327, 951.8902045983643, -0.7888211914411173, -1.9022594000002246, 28.348228530816453
2024-03-10T12:10:49Z, 32.94011498252931, 33.11623753562438, 951.8504208087445, -1.142314460606781, -2.0992335574194185, 28.3897571657309
2024-03-10T12:10:49Z, 32.94016186296637, 33.11631040885759, 951.7971318035425, -1.3099863214322678, -2.415642524377657, 28.418422350502514
2024-03-10T12:10:49Z, 32.94020875732171, 33.11638327749221, 951.7227057902367, -1.1960441499662557, -2.778238206812811, 28.429491014595513
2024-03-10T12:10:49Z, 32.940255624658256, 33.11645612929252, 951.6329103707671, -1.5808063683149074, -3.024911644682739, 28.422450770648766
2024-03-10T12:10:49Z, 32.940302477881055, 33.11652896719628, 951.5237253553838, -1.1975581368190626, -3.025107010208058, 28.493610377507586
2024-03-10T12:10:49Z, 32.94034935862106, 33.1166017999708, 951.3909281945497, -0.23188052663915648, -2.834936543334693, 28.540167496640773
2024-03-10T12:10:49Z, 32.94039623496944, 33.116674619842954, 951.246274579686, 0.22297292599056392, -2.4233147779633804, 28.517491995572893
2024-03-10T12:10:49Z, 32.94044311627404, 33.116747438613345, 951.0906703466713, 1.0132898601762677, -1.8567871253512693, 28.530696494150213
2024-03-10T12:10:49Z, 32.940489993848125, 33.116820257756, 950.9351777006865, 1.2680603513399802, -1.2300554366722503, 28.509731601505152
2024-03-10T12:10:49Z, 32.94053687604861, 33.11689307748008, 950.7837556240529, 1.9248086550232764, -0.4840247938787373, 28.541684648913556
2024-03-10T12:10:49Z, 32.94058377797582, 33.11696591829491, 950.6492966630817, 2.0227991503336487, 0.2830869312259899, 28.545243990567123
2024-03-10T12:10:49Z, 32.94063071138991, 33.117038806291696, 950.5410717669189, 1.9214791751988565, 0.894041270473325, 28.573869748003364
2024-03-10T12:10:49Z, 32.94067769892292, 33.117111726486314, 950.4523718996734, 2.3131689422665858, 1.1939402096135638, 28.60560753111622
2024-03-10T12:10:49Z, 32.94072472820291, 33.11718466733159, 950.3846075346172, 1.966085904835621, 1.0672895100039534, 28.529712273999795
2024-03-10T12:10:49Z, 32.94077173556575, 33.11725759333082, 950.33890246194, 1.0693813692541043, 0.5965228204120795, 28.458577702396134
2024-03-10T12:10:49Z, 32.9408187284332, 33.1173305142698, 950.3020921043337, 0.9720175068680562, -0.030700506125031567, 28.488409337647973
2024-03-10T12:10:49Z, 32.94086575142479, 33.11740345684956, 950.262098288244, 1.6220070087278282, -0.6353059154845576, 28.53621959290176
2024-03-10T12:10:49Z, 32.9409128087633, 33.117476407634435, 950.2231360100717, 2.0711160032115328, -1.052037628915896, 28.518614565421327
2024-03-10T12:10:49Z, 32.94095986948431, 33.117549363070204, 950.1909215996773, 1.97635568640145, -1.257286242363363, 28.467852141706643
2024-03-10T12:10:49Z, 32.94100691532166, 33.11762230967554, 950.1555031458914, 2.5811601371737583, -1.3957339137335967, 28.506759918519567
2024-03-10T12:10:49Z, 32.94105397672433, 33.117695238141046, 950.1109612073869, 3.6909461522708336, -1.4245436373919738, 28.54054490352155
2024-03-10T12:10:49Z, 32.94110104124828, 33.11776816698202, 950.0621886473001, 4.263894218894688, -1.390155380215682, 28.506713175247214
2024-03-10T12:10:49Z, 32.9411481290055, 33.11784113304462, 950.0072402264447, 5.069823924539513, -1.2658369614135687, 28.550421185325135
2024-03-10T12:10:49Z, 32.94119523678358, 33.11791410691747, 949.9521468584956, 5.359410760984296, -1.088530196150351, 28.542654101294875
2024-03-10T12:10:49Z, 32.94124234959603, 33.11798707556388, 949.8936002027393, 6.332748173707851, -0.8253542704849968, 28.601005823525412
2024-03-10T12:10:49Z, 32.941289501382684, 33.11806007366516, 949.8262902907759, 7.728052585735443, -0.5368412489074271, 28.655931218790244
2024-03-10T12:10:49Z, 32.94133671011632, 33.118133152074414, 949.755305826804, 8.47114266560478, -0.36715226552943936, 28.655244798589067
2024-03-10T12:10:49Z, 32.94138398180459, 33.11820630914919, 949.6775888863295, 9.47614121921806, -0.27719830065520523, 28.678384503478142
2024-03-10T12:10:49Z, 32.94143127504009, 33.11827948477356, 949.596749979803, 9.893441129392256, -0.2884737029166778, 28.64755094551458
2024-03-10T12:10:49Z, 32.94147860331374, 33.11835271112671, 949.506344498098, 10.956612443814679, -0.34783347408625276, 28.66634048057466
2024-03-10T12:10:49Z, 32.941525956798884, 33.11842596451018, 949.4007914478422, 12.30283236119626, -0.3355767014550627, 28.676712879720274
2024-03-10T12:10:49Z, 32.941573321468326, 33.118499228884666, 949.2861135866405, 12.662105324070271, -0.3609896429208682, 28.613270560196305
2024-03-10T12:10:49Z, 32.94162068899924, 33.118572511279666, 949.1662100894183, 12.365941994604702, -0.561154128316163, 28.517592453571595
2024-03-10T12:10:49Z, 32.94166808155417, 33.11864584698373, 949.0338012678892, 12.477254789959876, -0.8920080485095828, 28.459416458911203
2024-03-10T12:10:49Z, 32.94171546931797, 33.1187191734589, 948.8914433840812, 12.024938037477538, -1.3020651998423265, 28.335412133385606
2024-03-10T12:10:49Z, 32.941762832719355, 33.11879249950778, 948.7322476994544, 11.737357262287633, -1.8055254822932645, 28.223297664690186
2024-03-10T12:10:49Z, 32.941810164957296, 33.11886582533289, 948.5517094676256, 11.870819539798571, -2.2654115846106477, 28.146892086098976
2024-03-10T12:10:49Z, 32.941857472399946, 33.11893917954091, 948.3434858026833, 12.853572061515967, -2.5256572230093, 28.15023915100364
2024-03-10T12:10:49Z, 32.94190478942881, 33.11901259942962, 948.1053982492983, 14.299177803935311, -2.4542447783328116, 28.216744830971823
2024-03-10T12:10:49Z, 32.94195212929537, 33.11908606675463, 947.8493039836586, 15.167095173956943, -2.1139643444702103, 28.262025556420475
2024-03-10T12:10:49Z, 32.94199948680279, 33.11915957879351, 947.5862907305986, 15.337508109266127, -1.7011138777192185, 28.321744057642974
2024-03-10T12:10:49Z, 32.94204686026314, 33.119233124375405, 947.3129615465284, 15.851111190704847, -1.3961437775839118, 28.413955459548436
2024-03-10T12:10:49Z, 32.94209423156635, 33.119306660347924, 947.0339351913572, 15.729415880487188, -1.3263506353380379, 28.405099422674688
2024-03-10T12:10:49Z, 32.94214158549219, 33.119380180843535, 946.7431934368641, 15.56621026715212, -1.6193048636335792, 28.32148634289671
2024-03-10T12:10:49Z, 32.9421889233238, 33.11945370196585, 946.4416477587998, 14.989865131697838, -2.159218497918133, 28.144167183354487
2024-03-10T12:10:49Z, 32.94223623568791, 33.119527267997334, 946.1182794710845, 15.203759480156524, -2.804426601039327, 28.042094193664138
2024-03-10T12:10:49Z, 32.94228352778558, 33.119600871232315, 945.7628263991922, 16.1225702169679, -3.382177109805405, 27.940629131581712
2024-03-10T12:10:49Z, 32.942330819049076, 33.119674520513314, 945.3819450647325, 16.551787416295674, -3.769893002000359, 27.78331480382558
2024-03-10T12:10:49Z, 32.94237807696687, 33.119748210422316, 944.9816532553643, 16.314341859995938, -4.049550838698713, 27.650870632758735
2024-03-10T12:10:49Z, 32.94242530345782, 33.11982193796155, 944.5590558705032, 16.333980182934727, -4.189151616233746, 27.636931083206782
2024-03-10T12:10:49Z, 32.94247255112345, 33.11989570330178, 944.125904156211, 15.595659379994421, -4.030254483743167, 27.649239529786794
2024-03-10T12:10:49Z, 32.9425198011217, 33.119969430974386, 943.6968180549503, 14.06584893507838, -3.641452420493493, 27.722575879735743
2024-03-10T12:10:49Z, 32.942567091132936, 33.120043116104, 943.2861607604564, 12.432708918655251, -3.017061011947757, 27.88482623532755
2024-03-10T12:10:49Z, 32.9426144357951, 33.12011676617165, 942.8924548056812, 11.918029153775892, -2.2535800692310812, 28.125629122294942
2024-03-10T12:10:49Z, 32.94266187119777, 33.12019042861559, 942.5130352744818, 12.275618140918766, -1.514007162613082, 28.35637244190573
2024-03-10T12:10:49Z, 32.942709371686846, 33.12026405189316, 942.1553756898344, 12.730245112797636, -0.9318789601164427, 28.506191155963176
2024-03-10T12:10:49Z, 32.94275693111089, 33.12033763135659, 941.8183860689879, 13.773992675506706, -0.4705048865171112, 28.657448141178968
2024-03-10T12:10:49Z, 32.94280454550393, 33.1204111424119, 941.5059463168324, 14.80714585487545, -0.17711457661318772, 28.751551118408386
2024-03-10T12:10:49Z, 32.942852197436196, 33.12048459482918, 941.2070759864599, 16.523546456336184, -0.17104296774809818, 28.80668887675649
2024-03-10T12:10:49Z, 32.94289989176327, 33.12055800906483, 940.9123045644611, 18.7611623843173, -0.33777611302266014, 28.797926027523957
2024-03-10T12:10:49Z, 32.94294762101627, 33.120631381659734, 940.6230223740846, 20.696636140078535, -0.6958157850784198, 28.66828811710636
2024-03-10T12:10:49Z, 32.94299538491527, 33.120704762522166, 940.3342441613943, 22.441696423197264, -1.2080527772648468, 28.500945880105593
2024-03-10T12:10:49Z, 32.943043193891, 33.12077819463602, 940.0352413048179, 24.353581309262328, -1.7093021069037047, 28.30714553256816
2024-03-10T12:10:49Z, 32.94309102077436, 33.1208516511957, 939.7282178156734, 25.47886246213754, -2.203179683418156, 28.03731603621448
2024-03-10T12:10:49Z, 32.94313884253238, 33.120925123999896, 939.4164419719399, 25.84724857963126, -2.7123177579159723, 27.78701427801508
2024-03-10T12:10:49Z, 32.943186661737364, 33.12099866182555, 939.0897259631932, 26.91584614823485, -3.1719009763116897, 27.653997339232728
2024-03-10T12:10:49Z, 32.9432344188528, 33.12107220704216, 938.7371992399783, 28.54978150635241, -3.561313600449449, 27.503698800494146
2024-03-10T12:10:49Z, 32.94328212006677, 33.12114573588546, 938.366497268057, 29.29562249432484, -3.799520782313388, 27.310014764943954
2024-03-10T12:10:49Z, 32.9433298051049, 33.12121924604059, 937.9888825606049, 29.015789482698274, -3.835024352072605, 27.201909284616942
2024-03-10T12:10:49Z, 32.943377521702814, 33.121292780084616, 937.6099534961522, 28.138132277904315, -3.80418915951051, 27.17156811259557
2024-03-10T12:10:49Z, 32.94342524563598, 33.12136631530199, 937.2228852232934, 27.79907488069184, -3.849703107028758, 27.164878663818463
2024-03-10T12:10:49Z, 32.94347295795444, 33.121439802035816, 936.8327501443059, 27.165651917924897, -3.9153062265300473, 27.108756746645128
2024-03-10T12:10:49Z, 32.94352066748432, 33.12151325969677, 936.4369770135195, 27.07175975919872, -3.9340250428320127, 27.156419171907327
2024-03-10T12:10:49Z, 32.943568419412195, 33.121586672192095, 936.044240538767, 26.512543519591166, -3.7101840882905854, 27.24309297396928
2024-03-10T12:10:49Z, 32.943616228718795, 33.121660104334254, 935.6554633415581, 26.102240511685117, -3.2316412815238387, 27.534658814212865
2024-03-10T12:10:49Z, 32.94366412309738, 33.1217335319291, 935.269435539347, 26.360035247290444, -2.545292936974082, 27.94626646955881
2024-03-10T12:10:49Z, 32.943712111888736, 33.121806877571565, 934.8991709657819, 26.31781902166459, -1.6882627231324554, 28.358074071595397
2024-03-10T12:10:49Z, 32.94376021231233, 33.12188015214168, 934.5460132729501, 26.762460830567175, -0.8601055525951443, 28.803353476085917
2024-03-10T12:10:49Z, 32.943808467335025, 33.12195333236695, 934.2192792431832, 26.562673217789747, -0.16216125296786657, 29.09747301972777
2024-03-10T12:10:49Z, 32.943856883450216, 33.12202640080557, 933.9273192661286, 25.80901578062985, 0.21863176412007532, 29.245326903979443
2024-03-10T12:10:49Z, 32.94390542352096, 33.12209928753395, 933.6732352861226, 24.311983496555133, 0.1804285793029463, 29.202694515163664
2024-03-10T12:10:49Z, 32.94395409808471, 33.122172034614614, 933.4579151850164, 22.514969999015445, -0.21268015947408522, 29.03201998308681
2024-03-10T12:10:49Z, 32.94400290557829, 33.12224473771074, 933.2680117136032, 21.783570590068578, -0.8176713164959143, 28.875471569990204
2024-03-10T12:10:49Z, 32.944051796016566, 33.122317365907065, 933.0910079737455, 21.890749313751108, -1.415400305870502, 28.697505020520293
2024-03-10T12:10:49Z, 32.944100728798425, 33.12238988663841, 932.9295121581227, 21.6943290359937, -1.8372091802095278, 28.52777036924736
2024-03-10T12:10:49Z, 32.94414966688045, 33.12246231487114, 932.7752035241693, 22.23621909951689, -2.0655587342881905, 28.499442951328373
2024-03-10T12:10:49Z, 32.94419858807, 33.1225346850143, 932.6173866389215, 23.155313534642325, -2.1543471368342475, 28.53266606184222
2024-03-10T12:10:49Z, 32.94424750297594, 33.122607044868005, 932.4470180556983, 24.553941774221478, -2.227996044844441, 28.564173422057035
2024-03-10T12:10:49Z, 32.944296439311344, 33.1226793886289, 932.2725742567867, 25.117986708509548, -2.2137691600013287, 28.52204942418251
2024-03-10T12:10:49Z, 32.944345366929035, 33.122751680908934, 932.1013790070892, 24.984737660908554, -2.2088271704895392, 28.514508580552256
2024-03-10T12:10:49Z, 32.94439429790565, 33.122823951843735, 931.9270791912586, 25.618906552990666, -2.2031713893350706, 28.61356422345589
2024-03-10T12:10:49Z, 32.94444320568314, 33.12289620046369, 931.7398341626823, 27.16913219287021, -2.1967953472360775, 28.724660111989223
2024-03-10T12:10:49Z, 32.94449209619997, 33.12296845091434, 931.5351037018061, 29.18634525031648, -2.129039016085161, 28.822574662200456
2024-03-10T12:10:49Z, 32.94454097355746, 33.123040672650774, 931.3213700568259, 30.32393006586312, -2.0104475700915883, 28.836360614334826
2024-03-10T12:10:49Z, 32.94458985000441, 33.12311283333816, 931.1086184728593, 31.1108985296373, -1.8775698691488687, 28.91504239538394
2024-03-10T12:10:49Z, 32.94463873026415, 33.12318496440227, 930.88960723055, 32.61019509676907, -1.773062543617046, 29.039859430729802
2024-03-10T12:10:49Z, 32.94468761450867, 33.12325709436249, 930.6587142813921, 34.67873362198294, -1.673392888124671, 29.144295214219273
2024-03-10T12:10:49Z, 32.94473648417538, 33.123329197887614, 930.4199918285341, 36.57391460250363, -1.6561612365551275, 29.155002654552124
2024-03-10T12:10:49Z, 32.94478529915837, 33.12340130102623, 930.165603655386, 38.629115736674336, -1.8646934582472243, 29.044130200844926
2024-03-10T12:10:49Z, 32.944834087832014, 33.12347338129813, 929.8988967699051, 39.7370366907143, -2.141970493795693, 28.736291577732597
2024-03-10T12:10:49Z, 32.94488285652834, 33.123545433313545, 929.6261986724049, 40.05551326311192, -2.424685973333068, 28.426949349305005
2024-03-10T12:10:49Z, 32.94493155714187, 33.12361747313948, 929.3404351024211, 40.924587780392486, -2.682895458793472, 28.25487891938435
2024-03-10T12:10:49Z, 32.94498017482387, 33.1236895575631, 929.0341159875244, 42.614481928107075, -2.8184176883859187, 28.224193088340417
2024-03-10T12:10:49Z, 32.945028671768775, 33.12376175163522, 928.7000973517568, 45.001109138975266, -2.88702307845789, 28.28386925863816
2024-03-10T12:10:49Z, 32.9450769741381, 33.12383407761752, 928.3308829945654, 47.94541385767147, -2.97432757201365, 28.291757449997153
2024-03-10T12:10:49Z, 32.9451250343543, 33.123906582040604, 927.9238952140064, 51.34153116619314, -3.168173442527039, 28.14730275770824
2024-03-10T12:10:49Z, 32.94517280267113, 33.123979296476925, 927.4776570290119, 55.13789339918473, -3.432059848604242, 27.921598891660672
2024-03-10T12:10:49Z, 32.94522030490265, 33.124052212712265, 926.9948147624284, 59.02058444231273, -3.602859463498484, 27.709888903764345
2024-03-10T12:10:49Z, 32.94526759838691, 33.12412526098773, 926.4873787980706, 61.78888645850769, -3.5862386857878947, 27.629354163398027
2024-03-10T12:10:49Z, 32.94531478046503, 33.12419840268945, 925.9634103774011, 64.05492702310548, -3.5275675999786027, 27.725150388426968
2024-03-10T12:10:49Z, 32.94536193867059, 33.12427154517358, 925.4299696856172, 65.47599671680595, -3.349922963435932, 28.013808565740455
2024-03-10T12:10:49Z, 32.94540911061101, 33.1243446989865, 924.8872132799775, 67.14112102497232, -3.137063907178762, 28.56923597634917
2024-03-10T12:10:49Z, 32.94545640293025, 33.12441785179148, 924.3388164698482, 68.63901520102375, -2.872716057787805, 29.199901059401164
2024-03-10T12:10:49Z, 32.94550381774332, 33.12449103100503, 923.7831217221827, 70.33436239539107, -2.687993142326875, 29.766565741216994
2024-03-10T12:10:49Z, 32.94555134942873, 33.1245641559681, 923.2228769853921, 71.4064233588846, -2.541155117161899, 30.08091650881744
2024-03-10T12:10:49Z, 32.94559893309251, 33.124637293547224, 922.654335267985, 72.68553122529546, -2.5896606231895936, 30.044005032306096
2024-03-10T12:10:49Z, 32.945646596382524, 33.1247104522321, 922.0763947317839, 73.14553116917061, -2.669522656246745, 29.594523009463735
2024-03-10T12:10:49Z, 32.94569430035167, 33.12478356950444, 921.4929172901809, 73.00141544377024, -2.823979019491956, 28.932074696573377
2024-03-10T12:10:49Z, 32.94574197133476, 33.12485669727849, 920.8996097777189, 73.30981837919333, -3.0544257272036175, 28.251773363910658
2024-03-10T12:10:49Z, 32.945789628316575, 33.124929804134474, 920.2973744535507, 73.09168797641473, -3.20667439747274, 27.68705701810769
2024-03-10T12:10:49Z, 32.945837258714825, 33.12500292124037, 919.6856154181392, 72.87628363975841, -3.3028500049950686, 27.377844217260893
2024-03-10T12:10:49Z, 32.9458849323887, 33.125076030894945, 919.0674306995899, 72.24327903246134, -3.3031519771766367, 27.387638090542538
2024-03-10T12:10:49Z, 32.94593261130487, 33.12514910955627, 918.4410614367844, 72.33591222189906, -3.2821092455413607, 27.65590527254193
2024-03-10T12:10:49Z, 32.94598036434239, 33.12522213739829, 917.8087410962285, 72.69785464857706, -3.2320327398741515, 28.011168495861174
2024-03-10T12:10:49Z, 32.946028199760136, 33.12529515212102, 917.1694073143066, 73.91821613575071, -3.189296551600789, 28.505565726022112
2024-03-10T12:10:50Z, 32.9460761427215, 33.1253682391789, 916.5197704355747, 75.65779703789583, -3.111908185647418, 29.047816253917066
2024-03-10T12:10:50Z, 32.94612421114474, 33.125441326317485, 915.8638177666157, 76.8339250283181, -3.0061827215577237, 29.461549627325404
2024-03-10T12:10:50Z, 32.946172335977906, 33.12551441871209, 915.199577823025, 78.3174714019178, -2.995934469201908, 29.638594837578587
2024-03-10T12:10:50Z, 32.94622059842345, 33.125587518151086, 914.5285385567665, 78.93291576036789, -2.959696816967905, 29.606441332364945
2024-03-10T12:10:50Z, 32.946268999009106, 33.125660598365926, 913.8538908545584, 78.9164442210585, -2.9987795616213804, 29.353756453997807
2024-03-10T12:10:50Z, 32.94631744828402, 33.12573373068496, 913.1712904662163, 79.71279516871331, -3.1621136187763956, 28.95257978091049
2024-03-10T12:10:50Z, 32.9463658534288, 33.12580698226547, 912.4756448042393, 81.35341196403054, -3.3275563883555246, 28.45084907458383
2024-03-10T12:10:50Z, 32.94641425021785, 33.12588031651802, 911.7682049073637, 82.92326481643909, -3.4085536123177027, 27.983148069631593
2024-03-10T12:10:50Z, 32.946462650237606, 33.12595361713979, 911.0528720942796, 83.56607024661896, -3.405451846653008, 27.644132005389707
2024-03-10T12:10:50Z, 32.946511069605044, 33.12602686735732, 910.3325618971915, 83.77744665146983, -3.4339007081918607, 27.32982148056982
2024-03-10T12:10:50Z, 32.9465594438455, 33.126100115910184, 909.6047267267794, 84.81252116058458, -3.554028900441681, 27.10883540769869
2024-03-10T12:10:50Z, 32.94660773396471, 33.126173428449654, 908.866058058384, 86.79056611559899, -3.6647004461595527, 27.122748096217958
2024-03-10T12:10:50Z, 32.946655896757285, 33.12624685469381, 908.1156232250065, 89.49639542141787, -3.746648413369338, 27.349208414193974
2024-03-10T12:10:50Z, 32.94670394802073, 33.12632034316393, 907.3553329271525, 92.34507588744809, -3.788822516811593, 27.63675326727796
2024-03-10T12:10:50Z, 32.94675193357102, 33.12639389225596, 906.5859457610965, 94.96647336735614, -3.821149888318234, 27.94482937154802
2024-03-10T12:10:50Z, 32.946799931390245, 33.12646745822772, 905.8083908727498, 96.45813217256675, -3.78170189206323, 28.15152315238303
2024-03-10T12:10:50Z, 32.946847948581336, 33.12654098042841, 905.0255488877445, 97.11538172149591, -3.7639457055723433, 28.094882627954043
2024-03-10T12:10:50Z, 32.94689589191865, 33.12661453915145, 904.2362167794944, 98.472659109662, -3.8124374851497542, 27.75293171213461
2024-03-10T12:10:50Z, 32.94694366790559, 33.12668822609895, 903.4391899703622, 100.70890318104742, -3.846781086648238, 27.307166000674542
2024-03-10T12:10:50Z, 32.94699119237006, 33.126762050490086, 902.6356563647659, 103.38666732496065, -3.836303203427126, 26.94666044581294
2024-03-10T12:10:50Z, 32.94703854159567, 33.12683594636334, 901.8265444012195, 105.00856590030155, -3.7755268661086534, 26.819274071184537
2024-03-10T12:10:50Z, 32.947085817205846, 33.12690988589217, 901.0120592770458, 105.50772450829635, -3.716838276866268, 26.830456768209014
2024-03-10T12:10:50Z, 32.94713309693633, 33.12698389642995, 900.1925195819915, 105.31245863443739, -3.7007037775967206, 26.780042176105784
2024-03-10T12:10:50Z, 32.94718027537691, 33.12705804164687, 899.3684217110842, 105.99028444978444, -3.7226313461669043, 26.51522684321283
2024-03-10T12:10:50Z, 32.94722723297422, 33.127132341297205, 898.5404577278227, 107.60271460215394, -3.7104859630804476, 26.14372920602638
2024-03-10T12:10:50Z, 32.94727398761509, 33.12720674137159, 897.7080102950246, 109.33975929923946, -3.6481176598868044, 25.86024818855021
2024-03-10T12:10:50Z, 32.94732065269772, 33.12728120838052, 896.8702350408555, 110.05745875792707, -3.580336602656906, 25.750860414759806
2024-03-10T12:10:50Z, 32.947367312391584, 33.12735565746253, 896.0259151643604, 110.10424159038749, -3.6071517270592808, 25.870356798453237
2024-03-10T12:10:50Z, 32.947413978404306, 33.12743007568427, 895.1723815856338, 110.58291289136459, -3.829113167754651, 26.292235420696485
2024-03-10T12:10:50Z, 32.94746077394397, 33.12750444378222, 894.3040693804533, 110.48448865185829, -4.0653827496338595, 26.968195836218474
2024-03-10T12:10:50Z, 32.94750773647325, 33.12757872440483, 893.4206210647345, 110.21490643579426, -4.341720926220099, 27.735564448269137
2024-03-10T12:10:50Z, 32.94755497223623, 33.12765291505476, 892.5201905120641, 109.51504895440979, -4.609103305818219, 28.440502822720166
2024-03-10T12:10:50Z, 32.94760239397411, 33.1277269922713, 891.6031049144984, 109.66125010583572, -4.8715061782388895, 28.934012441527717
2024-03-10T12:10:50Z, 32.94765004102283, 33.12780099909428, 890.6675610595197, 110.27406722816305, -5.054825085517771, 29.32263291569469
2024-03-10T12:10:50Z, 32.947697902083505, 33.1278749296639, 889.7136843914152, 111.4058898128836, -5.257706547643178, 29.74008540978739
2024-03-10T12:10:50Z, 32.94774602051019, 33.127948688376506, 888.73965250825, 111.71702664166925, -5.383966393204565, 30.17399310428708
2024-03-10T12:10:50Z, 32.94779448557808, 33.128022198954, 887.7440270825745, 111.41110354622568, -5.561778194868642, 30.644921665720783
2024-03-10T12:10:50Z, 32.94784329921648, 33.1280954478454, 886.7233649788052, 111.63968560903609, -5.8641188735359755, 31.29964064496175
2024-03-10T12:10:50Z, 32.94789254598791, 33.128168379062394, 885.6751087892264, 111.50575517665263, -6.194464006410325, 32.13526346106992
2024-03-10T12:10:50Z, 32.94794221620413, 33.12824101322098, 884.5985696217031, 111.87125921025519, -6.573094490723152, 32.94238049258675
2024-03-10T12:10:50Z, 32.947992357273115, 33.128313331229776, 883.4922845874668, 111.913558084337, -6.830657790059756, 33.59419073637704
2024-03-10T12:10:50Z, 32.94804290415905, 33.128385388895104, 882.3589546742231, 112.44972501033111, -7.0143950363957766, 33.889411642928835
2024-03-10T12:10:50Z, 32.948093811343135, 33.128457128432906, 881.1980339873314, 112.35761528755094, -6.960629020881806, 33.828486193952436
2024-03-10T12:10:50Z, 32.94814506501003, 33.128528546870896, 880.0136577588022, 111.84181233185821, -6.772483163967203, 33.408281250625976
2024-03-10T12:10:50Z, 32.948196549918535, 33.128599742264825, 878.8105316743345, 112.25826679711916, -6.595917523886514, 32.760770718663075
2024-03-10T12:10:50Z, 32.94824816125033, 33.12867084426836, 877.5922387762606, 113.70157673550919, -6.42342588046289, 32.094270953089435
2024-03-10T12:10:50Z, 32.948299818489936, 33.128741990551944, 876.3640191641987, 115.987419705433, -6.28766633720958, 31.488529235413644
2024-03-10T12:10:50Z, 32.94835140044271, 33.12881322658137, 875.1305362174273, 119.03488204444373, -6.196826334434469, 31.03574864746158
2024-03-10T12:10:50Z, 32.94840281640139, 33.12888463658084, 873.8985908425927, 122.77491746245381, -6.10080596268871, 30.68966452790505
2024-03-10T12:10:50Z, 32.94845406747507, 33.12895634691841, 872.6736949852288, 126.69746397866182, -5.973585066736433, 30.394311518845388
2024-03-10T12:10:50Z, 32.948505195279175, 33.1290282737142, 871.4549864466459, 129.3643739774055, -5.818603394575597, 30.239485034717084
2024-03-10T12:10:50Z, 32.94855623421678, 33.12910035913384, 870.2427564665616, 131.06288695599844, -5.661480337040749, 30.10200549923435
2024-03-10T12:10:50Z, 32.94860715552922, 33.12917261967176, 869.0383064701259, 132.95601439872226, -5.592993381782737, 29.991453197827656
2024-03-10T12:10:50Z, 32.948657987162164, 33.12924496111034, 867.8373866917581, 134.21457848923555, -5.642319119467463, 30.075822735403495
2024-03-10T12:10:50Z, 32.94870873098711, 33.12931743917355, 866.6437666018188, 136.09505607426462, -5.85655289590758, 30.202483349633663
2024-03-10T12:10:50Z, 32.94875938049266, 33.129390149618956, 865.4593714745522, 138.38233464017716, -6.042423091407936, 30.3045253987019
2024-03-10T12:10:50Z, 32.94880995457966, 33.129463008247455, 864.2810280116469, 139.67087757052192, -6.0375029289678, 30.370845114099385
2024-03-10T12:10:50Z, 32.94886053015429, 33.12953597363439, 863.1053186709792, 140.1659027032876, -5.988221854997932, 30.358747993423943
2024-03-10T12:10:50Z, 32.94891100890005, 33.129609019205255, 861.9381747708768, 141.278653412067, -5.897737171890024, 30.17817278470304
2024-03-10T12:10:50Z, 32.94896136844685, 33.12968212608092, 860.7760102100551, 142.49886387582492, -5.6049197034267815, 29.892856643843533
2024-03-10T12:10:50Z, 32.949011644356496, 33.12975526102151, 859.6172213970334, 143.1782341165584, -5.215548743793126, 29.610906504198955
2024-03-10T12:10:50Z, 32.949061800540086, 33.1298284557598, 858.4685478311867, 144.57890319065237, -4.952187499059427, 29.33575719889965
2024-03-10T12:10:50Z, 32.94911182087981, 33.12990176220031, 857.3332022059053, 146.64213301685507, -4.879501748775609, 29.216138090394715
2024-03-10T12:10:50Z, 32.94916172802747, 33.1299752414628, 856.2144699140847, 149.0750261287091, -4.947951022301576, 29.215431008220776
2024-03-10T12:10:50Z, 32.94921156555707, 33.130048795454954, 855.1031865146578, 150.39843894197435, -5.164203327699947, 29.389595795472086
2024-03-10T12:10:50Z, 32.949261395625136, 33.13012236868289, 853.9915336031288, 151.08450153696467, -5.511668135154296, 29.613052856026183
2024-03-10T12:10:50Z, 32.94931122506405, 33.130196026698364, 852.879481617576, 152.13091352088534, -5.87169982130939, 29.767115686163386
2024-03-10T12:10:50Z, 32.949361088817156, 33.13026971798083, 851.7569163588614, 152.52691746982808, -6.221175696414677, 29.989334653760597
2024-03-10T12:10:50Z, 32.94941101367271, 33.13034344924165, 850.6221803450346, 153.09401613237833, -6.570661226005009, 30.155615300290577
2024-03-10T12:10:50Z, 32.94946100639275, 33.13041719341713, 849.4681117460311, 153.9231533784385, -6.9374025687138845, 30.33277915021422
2024-03-10T12:10:50Z, 32.949511069330306, 33.130490858415726, 848.2869402546645, 154.6517156447035, -7.256708247788832, 30.496021138271438
2024-03-10T12:10:50Z, 32.94956121365253, 33.13056442017242, 847.0759669213951, 155.2833711041014, -7.386916890089585, 30.531949291870973
2024-03-10T12:10:50Z, 32.949611392233166, 33.13063794499777, 845.8462348301143, 156.76189439234903, -7.2354143520633585, 30.396400120174185
2024-03-10T12:10:50Z, 32.949661590277316, 33.13071152099944, 844.6061867862493, 158.7123891407667, -6.901208377606618, 30.216344729410007
2024-03-10T12:10:50Z, 32.94971177886496, 33.13078505428367, 843.3532637333841, 159.668987314003, -6.535742953417726, 30.136196778410785
2024-03-10T12:10:50Z, 32.949761990350815, 33.13085848793871, 842.0827903414339, 159.86700818787983, -6.3496925734496905, 30.101182796095383
2024-03-10T12:10:50Z, 32.949812199475765, 33.130931833167026, 840.7956429411292, 160.45125026957214, -6.497040680644301, 30.097681898343872
2024-03-10T12:10:50Z, 32.949862437769795, 33.13100510211893, 839.4850149848163, 160.47015942157697, -6.848072126343285, 30.217879054705904
2024-03-10T12:10:50Z, 32.9499127220927, 33.13107835387452, 838.1533728587866, 160.7781081632371, -7.250342294437147, 30.313111316436625
2024-03-10T12:10:50Z, 32.94996302838291, 33.131151531710856, 836.7980427482307, 161.10617461448808, -7.512195425905564, 30.39786063744933
2024-03-10T12:10:50Z, 32.95001337271901, 33.13122470474647, 835.4284675519646, 162.12359186559814, -7.555800877776169, 30.33328167597258
2024-03-10T12:10:50Z, 32.95006374405391, 33.13129794665037, 834.0503680009247, 163.65517144024668, -7.474454567189013, 30.24054608382087
2024-03-10T12:10:50Z, 32.950114146616606, 33.13137119641516, 832.659755942604, 164.5736231731364, -7.429381215652027, 30.219411806162753
2024-03-10T12:10:50Z, 32.95016456807583, 33.13144446313874, 831.2612069050849, 166.00556446531397, -7.491075918669153, 30.16042758349956
2024-03-10T12:10:50Z, 32.950214960901924, 33.131517698408544, 829.8501324522794, 167.2648128350159, -7.497408716409451, 30.15115713078645
2024-03-10T12:10:50Z, 32.950265337980284, 33.131590864576395, 828.4250741362364, 167.8770205214144, -7.327652560177854, 30.153775085104154
2024-03-10T12:10:50Z, 32.95031570517339, 33.131664005251196, 826.995950456965, 169.08108305912717, -7.066559416624412, 30.05186305172589
2024-03-10T12:10:50Z, 32.95036604481335, 33.13173716684296, 825.5715700519413, 170.27669171297828, -6.721362566258906, 29.965358796331014
2024-03-10T12:10:50Z, 32.95041638665569, 33.13181034469939, 824.1475216749341, 170.79055902518226, -6.428440859677583, 29.929443030627457
2024-03-10T12:10:50Z, 32.95046676615187, 33.13188362484727, 822.7249933779717, 171.67444176583157, -6.356805493923753, 29.908347135500435
2024-03-10T12:10:50Z, 32.95051714915804, 33.131956909476884, 821.2923530517519, 171.6502270199347, -6.618358930035951, 30.020820532458906
2024-03-10T12:10:50Z, 32.950567513682465, 33.13203007438108, 819.8369449416965, 170.96379417329885, -7.257884098038531, 30.16207937154039
2024-03-10T12:10:50Z, 32.95061787365669, 33.132103163539064, 818.3584646843434, 171.16561126052346, -8.145061299937021, 30.241360495693492
2024-03-10T12:10:50Z, 32.95066824531994, 33.13217625232911, 816.8583477139682, 172.35880561138939, -9.083505593523695, 30.30351763099561
2024-03-10T12:10:50Z, 32.950718629596615, 33.13224937333693, 815.338198715508, 174.1554445251247, -9.8841553285105, 30.38896286946762
2024-03-10T12:10:50Z, 32.950769013069575, 33.13232243892044, 813.7938223509283, 175.5705762896333, -10.403029431539263, 30.47468041515435
2024-03-10T12:10:50Z, 32.95081939668904, 33.13239546912309, 812.2273605963618, 177.19811809170878, -10.730527674090776, 30.48649781515442
2024-03-10T12:10:50Z, 32.95086979527393, 33.13246847769755, 810.6280808356584, 177.76933502244, -11.021950933581769, 30.550577394408144
2024-03-10T12:10:50Z, 32.95092024130352, 33.132541477091486, 808.9895138359219, 177.6036668622549, -11.228734611773714, 30.577741433682064
2024-03-10T12:10:50Z, 32.95097066230357, 33.132614416336175, 807.3171740645618, 177.92390632656284, -11.422493254184236, 30.557710109908385
2024-03-10T12:10:50Z, 32.95102104942374, 33.132687267941854, 805.6061682644338, 177.78868793316184, -11.656957552486016, 30.57559816879411
2024-03-10T12:10:50Z, 32.951071411659164, 33.13276004975074, 803.8596174387128, 178.50486004018722, -12.048881513672303, 30.537668653676878
2024-03-10T12:10:50Z, 32.95112174239006, 33.13283278696215, 802.0764454891563, 179.74194958807988, -12.74245974178605, 30.502276066541928
2024-03-10T12:10:50Z, 32.951172029664676, 33.132905441158236, 800.2448439443618, -179.610989883254, -13.696683194749596, 30.515665859325953
2024-03-10T12:10:50Z, 32.95122228981461, 33.132978037665225, 798.3656918170363, -178.25930889603583, -14.718347380155567, 30.45544565001228
2024-03-10T12:10:50Z, 32.95127253821199, 33.13305062940088, 796.4434152746022, -176.15807262572727, -15.625973295496548, 30.349624191103906
2024-03-10T12:10:50Z, 32.95132273521282, 33.133123197800266, 794.4816036453456, -173.73625139591215, -16.407325442085803, 30.25523169022232
2024-03-10T12:10:50Z, 32.95137286153215, 33.13319570844015, 792.4733484063238, -172.42513160879966, -16.96722325234511, 30.228570651600286
2024-03-10T12:10:50Z, 32.9514228895758, 33.13326812975088, 790.4155473372817, -171.91176487004952, -17.123573121506134, 30.247929273253735
2024-03-10T12:10:50Z, 32.95147282655164, 33.13334047343447, 788.3085138581783, -172.19457428994147, -16.779508289970583, 30.348434817659463
2024-03-10T12:10:50Z, 32.95152270083597, 33.13341275903435, 786.1516209008664, -173.36562738392232, -16.073233922895078, 30.488154757917343
2024-03-10T12:10:50Z, 32.95157248350445, 33.13348492619612, 783.9500638388604, -174.99288056058398, -15.222037240054107, 30.59623413309112
2024-03-10T12:10:50Z, 32.95162221855413, 33.13355701835588, 781.7180807826877, -176.0323871448571, -14.430537540897637, 30.63757287486631
2024-03-10T12:10:50Z, 32.95167193489167, 33.13362908876966, 779.4663516661674, -176.3226290438737, -13.859734499908269, 30.617752317990117
2024-03-10T12:10:50Z, 32.951721662098, 33.133701163178124, 777.1955273977429, -176.9202077852766, -13.423710521399355, 30.635198842139747
2024-03-10T12:10:50Z, 32.95177140975794, 33.13377326436928, 774.9178718557031, -176.91354454532734, -12.94394029110787, 30.614820349437082
2024-03-10T12:10:50Z, 32.95182115592647, 33.133845340822525, 772.6359192649037, -177.2550051242371, -12.419988296764839, 30.660156365674627
2024-03-10T12:10:50Z, 32.951870951668674, 33.133917446375115, 770.3604733025194, -176.70656417170696, -11.904460942041093, 30.616727949072796
2024-03-10T12:10:50Z, 32.95192080270354, 33.13398964146257, 768.0987754903347, -175.4875346255305, -11.532304715975526, 30.609893171153637
2024-03-10T12:10:50Z, 32.9519706989983, 33.13406187118593, 765.8419440564842, -175.20145406593812, -11.449242053716967, 30.679571928190473
2024-03-10T12:10:50Z, 32.95202064672536, 33.13413411227477, 763.5790275425703, -176.01985393997566, -11.574992384196982, 30.711746384619108
2024-03-10T12:10:50Z, 32.952070562229615, 33.13420627167232, 761.3011410473764, -177.63989002417316, -11.819365319727826, 30.716567999468673
2024-03-10T12:10:50Z, 32.952120450209684, 33.134278377560115, 759.002923305443, -179.51597112267584, -12.015037543140064, 30.704412090766855
2024-03-10T12:10:50Z, 32.952170344131396, 33.134350468555496, 756.679982044217, 178.22407268186873, -12.039103088874091, 30.704591489333787
2024-03-10T12:10:50Z, 32.95222021423826, 33.13442251730951, 754.337539887321, 176.23324635277922, -12.03175456826315, 30.686964527960384
2024-03-10T12:10:50Z, 32.95227003285141, 33.13449443817212, 751.970169633776, 174.11703349687915, -12.17275159602693, 30.70268262971442
2024-03-10T12:10:50Z, 32.9523197972029, 33.13456624400864, 749.5765951555342, 172.8546650481272, -12.606211485024911, 30.684727419603252
2024-03-10T12:10:50Z, 32.95236950424662, 33.13463791265002, 747.1455786233694, 171.169693344101, -13.226828255724737, 30.807039645593992
2024-03-10T12:10:50Z, 32.95241920791143, 33.13470943338438, 744.6685960617542, 169.1548525881832, -13.87904399834247, 30.94194685039423
2024-03-10T12:10:50Z, 32.95246889472163, 33.13478078242594, 742.1459249837279, 167.15843259908408, -14.60508733076573, 31.095500284817028
2024-03-10T12:10:50Z, 32.95251858908075, 33.13485191880182, 739.5676213594079, 164.71635989842017, -15.319718851632995, 31.296071119505797
2024-03-10T12:10:50Z, 32.952568328211434, 33.13492280860824, 736.9262364621788, 161.83726322094, -15.852389307016978, 31.44930253823568
2024-03-10T12:10:50Z, 32.9526180958502, 33.134993398494814, 734.2254869313241, 158.9971674034779, -16.05269930508791, 31.491430122524875
2024-03-10T12:10:50Z, 32.95266789390567, 33.1350637728152, 731.4786712272406, 157.2978902775423, -15.827581897570877, 31.336051458040362
2024-03-10T12:10:50Z, 32.95271770322469, 33.13513388397936, 728.6919172473729, 155.2514880634265, -15.24226577991111, 31.084573327838083
2024-03-10T12:10:50Z, 32.952767529633206, 33.135203751317405, 725.8755354509086, 153.02677879797662, -14.521644603675744, 30.72215187317619
2024-03-10T12:10:50Z, 32.95281733547015, 33.13527345424969, 723.043096995762, 152.092482502496, -13.869046819829677, 30.278432770120048
2024-03-10T12:10:50Z, 32.952867074603894, 33.13534306237689, 720.2058290468395, 152.3388303719349, -13.397819168521012, 29.905539749037082
2024-03-10T12:10:50Z, 32.95291671309926, 33.13541261635874, 717.3688860769452, 153.3437309155024, -13.20296468968656, 29.710456662286273
2024-03-10T12:10:50Z, 32.952966295485744, 33.13548205947725, 714.5255974017709, 153.90587978203837, -13.351781899384404, 29.790252072847185
2024-03-10T12:10:50Z, 32.95301585205214, 33.1355514145759, 711.6749734310121, 155.2356025702574, -13.969583339695813, 29.98916945089246
2024-03-10T12:10:50Z, 32.95306537984861, 33.135620735912845, 708.8155695194722, 157.4795144509881, -14.896008729593017, 30.32438544719639
2024-03-10T12:10:50Z, 32.95311491932597, 33.13569007245921, 705.9427868517458, 160.0764902277465, -15.962582820147807, 30.75587677980287
2024-03-10T12:10:50Z, 32.95316450398137, 33.13575931874589, 703.0437760406793, 161.70707768640818, -17.013003889504446, 31.219633649975393
2024-03-10T12:10:50Z, 32.953214174536555, 33.13582842384369, 700.1044178933591, 162.03623642800216, -17.90108280665272, 31.589753524952314
2024-03-10T12:10:50Z, 32.953263868360516, 33.135897276321074, 697.1178825566411, 161.3442683792772, -18.474277468122995, 31.834090483278306
2024-03-10T12:10:50Z, 32.95331358131734, 33.13596586655035, 694.0811985435695, 160.07339593250822, -18.69303435097152, 31.96903480728804
2024-03-10T12:10:50Z, 32.95336333970108, 33.13603417094406, 690.9933705399425, 158.47791021285664, -18.71946324420988, 31.99982707183866
2024-03-10T12:10:50Z, 32.953413145394634, 33.136102293488044, 687.8664714609594, 157.9974132329714, -18.540028987844302, 31.820637228681434
2024-03-10T12:10:51Z, 32.95346294202638, 33.13617031725272, 684.7158087854684, 158.7367589331619, -18.111823943758782, 31.538636535236176
2024-03-10T12:10:51Z, 32.95351268722466, 33.13623828642981, 681.5532011688888, 160.0422416511148, -17.582744791977653, 31.29475754142936
2024-03-10T12:10:51Z, 32.95356240233993, 33.136306172121884, 678.3800746120245, 160.7613415300896, -17.101884371851007, 31.145280844605693
2024-03-10T12:10:51Z, 32.953612079388215, 33.13637404472792, 675.2069027363419, 162.03884887074776, -16.67267639097217, 30.957729646155723
2024-03-10T12:10:51Z, 32.95366171429032, 33.13644192412789, 672.0370055699319, 163.35713885003557, -16.333790761508048, 30.84348670546862
2024-03-10T12:10:51Z, 32.95371129806177, 33.13650982746637, 668.873788206777, 165.04790794144878, -16.248399970451793, 30.80015358829863
2024-03-10T12:10:51Z, 32.95376084298364, 33.1365776806365, 665.7052343415946, 165.6754684132712, -16.518586280862806, 30.948485665298485
2024-03-10T12:10:51Z, 32.953810352364776, 33.136645363802096, 662.5164858197182, 165.10619786870066, -17.21383347277365, 31.196292692481816
2024-03-10T12:10:51Z, 32.9538598355971, 33.136712825438806, 659.293586915955, 163.91091096869712, -18.20301419731155, 31.491094947623502
2024-03-10T12:10:51Z, 32.9539092913399, 33.13678009131673, 656.0346651666999, 163.65465297211225, -19.325824858437848, 31.766518073344933
2024-03-10T12:10:51Z, 32.95395875012682, 33.13684723205986, 652.7396331113578, 164.1106430874015, -20.4001258513077, 32.02723377452899
2024-03-10T12:10:51Z, 32.954008257397795, 33.13691433738412, 649.4105325641156, 165.50264352938876, -21.26023792310813, 32.219282300547455
2024-03-10T12:10:51Z, 32.95405778083492, 33.13698140992526, 646.0548664293319, 167.3214018987119, -21.772720608689525, 32.3187983463017
2024-03-10T12:10:51Z, 32.95410731915307, 33.1370484043969, 642.6695337164641, 168.4611733191372, -21.986897043105717, 32.41223113990968
2024-03-10T12:10:51Z, 32.95415690108091, 33.13711539922257, 639.2609446560592, 169.97460743406165, -21.91599443936922, 32.37597254981416
2024-03-10T12:10:51Z, 32.9542064724045, 33.13718232773962, 635.8315546408028, 171.22080939139448, -21.63512694806259, 32.33518143998524
2024-03-10T12:10:51Z, 32.95425604229033, 33.137249232291936, 632.3871803044349, 172.65998747864847, -21.339176752878938, 32.273008769078565
2024-03-10T12:10:51Z, 32.954305609509674, 33.13731607209084, 628.9241111902983, 173.398881981418, -21.202751933804482, 32.26254406014058
2024-03-10T12:10:51Z, 32.95435518228259, 33.13738289637028, 625.4408534771919, 174.4600122325559, -21.398145146016894, 32.239901904070116
2024-03-10T12:10:51Z, 32.954404739075834, 33.13744964257052, 621.9258011466086, 174.9149043398164, -22.016502352115552, 32.33262220935785
2024-03-10T12:10:51Z, 32.954454259705635, 33.13751627713848, 618.3799991259099, 175.9885710649722, -23.0004852084119, 32.360319200837104
2024-03-10T12:10:51Z, 32.95450372461091, 33.13758283473984, 614.8009503598005, 177.5493645528036, -24.151915421242958, 32.42331439404349
2024-03-10T12:10:51Z, 32.9545531420611, 33.137649258530075, 611.1780635423183, 178.4081039824711, -25.269735495949796, 32.51526304898351
2024-03-10T12:10:51Z, 32.954602507629666, 33.137715557434355, 607.5127482758314, 179.73321492812056, -26.174184885684753, 32.47193673391958
2024-03-10T12:10:51Z, 32.954651760942895, 33.13778171146999, 603.7997073171348, -179.10644898421938, -26.709622225456844, 32.457921498228124
2024-03-10T12:10:51Z, 32.95470089901403, 33.137847690738646, 600.0335657637925, -178.6215660366443, -26.953130034539008, 32.472598460626166
2024-03-10T12:10:51Z, 32.95474996752289, 33.137913563678005, 596.2213473729015, -177.39718281015143, -27.03489232294993, 32.40372957593879
2024-03-10T12:10:51Z, 32.95479901908696, 33.137979426427854, 592.3752804928065, -175.37512161662264, -26.912144921156465, 32.30926122443127
2024-03-10T12:10:51Z, 32.95484803899775, 33.13804528753613, 588.5086026989491, -172.9953239659963, -26.659765492280464, 32.2677622021592
2024-03-10T12:10:51Z, 32.954897039569, 33.13811114516295, 584.6206035025835, -171.7455306590048, -26.25024927325031, 32.36688929120536
2024-03-10T12:10:51Z, 32.95494603707953, 33.138176968803656, 580.7101159032673, -171.29093640280843, -25.740968285586575, 32.48439331319194
2024-03-10T12:10:51Z, 32.95499507361518, 33.13824280370668, 576.7890870221884, -170.09731493542427, -25.206139699499644, 32.4979734537381
2024-03-10T12:10:51Z, 32.955044195604685, 33.13830873437363, 572.8643294522345, -168.1008245825775, -24.782256905616855, 32.52277888574038
2024-03-10T12:10:51Z, 32.955093405437864, 33.13837475510672, 568.932288303879, -166.23226498142952, -24.421599325009986, 32.60634657182809
2024-03-10T12:10:51Z, 32.95514264167967, 33.138440782565894, 564.9874664063037, -165.4671712125317, -24.192239900742532, 32.711087459650024
2024-03-10T12:10:51Z, 32.95519187647735, 33.1385068037958, 561.0207239081473, -165.01025121221537, -24.217918471418272, 32.71055805465508
2024-03-10T12:10:51Z, 32.955241065501035, 33.13857279366966, 557.0387235601992, -164.01625666862478, -24.440404713670514, 32.61822190996531
2024-03-10T12:10:51Z, 32.955290136795504, 33.13863871224887, 553.030454474777, -163.78131176885685, -24.918271560873766, 32.53749643198881
2024-03-10T12:10:51Z, 32.955339081346956, 33.138704554939885, 548.9834648183585, -163.95612100433164, -25.529140301550786, 32.371291460933996
2024-03-10T12:10:51Z, 32.95538793012436, 33.138770380701054, 544.8977916617185, -163.97297140528104, -26.090696947289366, 32.15408687703057
2024-03-10T12:10:51Z, 32.955436560553636, 33.13883609440431, 540.7699537016363, -164.5295257175754, -26.61113750007128, 32.008394152479895
2024-03-10T12:10:51Z, 32.95548495216524, 33.138901654860724, 536.5957531383813, -165.31231260276505, -26.96284717744828, 31.904859556398115
2024-03-10T12:10:51Z, 32.95553315808668, 33.13896711160403, 532.3834993382603, -165.48245807464772, -26.991358945197018, 31.837399794261618
2024-03-10T12:10:51Z, 32.95558119731767, 33.13903248278131, 528.1311422401786, -166.05280791766936, -26.808613443481608, 31.891811026991466
2024-03-10T12:10:51Z, 32.955629106174264, 33.139097769554354, 523.8501411237806, -165.6564437938789, -26.564082544232953, 31.897250687650825
2024-03-10T12:10:51Z, 32.9556769483754, 33.13916302587642, 519.552980128938, -164.6371360199177, -26.220893979492445, 31.9594959419976
2024-03-10T12:10:51Z, 32.95572473686096, 33.13922824318416, 515.238628165108, -164.57532022972418, -25.75110073953386, 32.14025983457352
2024-03-10T12:10:51Z, 32.95577244185751, 33.13929338965864, 510.90276626558307, -165.56455779198606, -25.306422032262642, 32.32180802011898
2024-03-10T12:10:51Z, 32.95582000764724, 33.139358420467566, 506.5397346729487, -167.4272658092637, -25.055055443286502, 32.447938824346956
2024-03-10T12:10:51Z, 32.95586734548678, 33.139423245227604, 502.1422305819154, -170.01707705842497, -25.147862166584645, 32.476935064652125
2024-03-10T12:10:51Z, 32.955914393336826, 33.13948779595688, 497.7006571411729, -173.18752841465962, -25.688325206333207, 32.41748271513825
2024-03-10T12:10:51Z, 32.955961164470075, 33.13955206336095, 493.20959714754224, -176.7585137051902, -26.59377413078628, 32.32657676186213
2024-03-10T12:10:51Z, 32.956007725778875, 33.139616093315865, 488.6672072428823, 179.77882093040623, -27.68218569343211, 32.24808203525171
2024-03-10T12:10:51Z, 32.956054144349935, 33.13967993865061, 484.0731691746801, 177.22288143137524, -28.765752588507404, 32.1878268192421
2024-03-10T12:10:51Z, 32.95610038838843, 33.13974355821483, 479.430867147705, 175.8331103141635, -29.767380208159018, 32.1602969781014
2024-03-10T12:10:51Z, 32.95614646316015, 33.139806889232965, 474.7340591158659, 174.40630102123325, -30.601775999554924, 32.244973409540655
2024-03-10T12:10:51Z, 32.95619242681897, 33.139869965909476, 469.9835759321094, 174.13603999190906, -31.336432480572434, 32.24085719825218
2024-03-10T12:10:51Z, 32.95623831285195, 33.13993289154087, 465.1811531656891, 174.64678586197414, -31.893977707225673, 32.23760476734525
2024-03-10T12:10:51Z, 32.95628410506451, 33.13999561184008, 460.3275260188222, 174.3552408489865, -32.090140111596234, 32.32131551779688
2024-03-10T12:10:51Z, 32.956329763591754, 33.14005802812027, 455.43013940181436, 173.14414065238734, -31.816507564868576, 32.33682824303937
2024-03-10T12:10:51Z, 32.95637531547752, 33.14012016664364, 450.49047401439253, 171.67772244869442, -31.176007636418177, 32.26985498773291
2024-03-10T12:10:51Z, 32.956420815536035, 33.1401821475802, 445.5207786739916, 171.39491063639497, -30.3873362399914, 32.069243227284716
2024-03-10T12:10:51Z, 32.95646625725776, 33.14024403519064, 440.5384992066354, 172.28392248442105, -29.639635492455326, 31.860158024756107
2024-03-10T12:10:51Z, 32.95651166037632, 33.14030590506912, 435.555006243673, 174.00786965042, -29.10477754845888, 31.717004753552438
2024-03-10T12:10:51Z, 32.95655707357187, 33.1403678231749, 430.57372849569623, 175.54670335119826, -28.90306457475206, 31.69411142741419
2024-03-10T12:10:51Z, 32.956602523495434, 33.14042976853481, 425.5871424881995, 175.94784138042826, -28.926890447674324, 31.73481496499942
2024-03-10T12:10:51Z, 32.95664796421922, 33.14049166331905, 420.5953703737468, 176.04894640355354, -28.998679634798712, 31.7324329306362
2024-03-10T12:10:51Z, 32.95669340184146, 33.140553582045875, 415.6047994679958, 176.80848151672154, -28.9318002159658, 31.696513226975544
2024-03-10T12:10:51Z, 32.956738868560535, 33.140615529814774, 410.6150450310767, 177.2335073572735, -28.59719374549194, 31.68918016308816
2024-03-10T12:10:51Z, 32.956784406857146, 33.14067758196161, 405.63346189658046, 178.49244189750755, -28.145583732069028, 31.582400253063497
2024-03-10T12:10:51Z, 32.95683000598253, 33.14073976838633, 400.67320608719587, -179.29769705181587, -27.71193563224668, 31.51327353330498
2024-03-10T12:10:51Z, 32.95687572540267, 33.14080214992214, 395.73802602624, -176.7277106262131, -27.39954515662723, 31.49976150392547
2024-03-10T12:10:51Z, 32.95692157780464, 33.140864694397514, 390.8229929743141, -175.48307460714858, -27.13602997449651, 31.5945805702461
2024-03-10T12:10:51Z, 32.95696751656676, 33.140927298430015, 385.9267811391145, -175.59654294986353, -26.78508555477353, 31.727829603984517
2024-03-10T12:10:51Z, 32.957013528874214, 33.14098992931183, 381.04557547144, -176.51402239293168, -26.39284363064739, 31.801029841351646
2024-03-10T12:10:51Z, 32.95705962757039, 33.14105264576209, 376.18791204977634, -176.43401852618044, -26.001140630415954, 31.78866494632993
2024-03-10T12:10:51Z, 32.9571058401857, 33.14111550264575, 371.36145847705006, -175.32841941523353, -25.71517352348691, 31.762670512242828
2024-03-10T12:10:51Z, 32.95715224133369, 33.14117857493811, 366.5730934781045, -173.63598373470984, -25.488778125613422, 31.772402260628553
2024-03-10T12:10:51Z, 32.95719889082193, 33.14124188731676, 361.8268353782505, -171.20582899657344, -25.375602629987867, 31.755690217571438
2024-03-10T12:10:51Z, 32.957245802863056, 33.14130541598337, 357.1257520044029, -168.13869955621345, -25.51314477625738, 31.68051954833507
2024-03-10T12:10:51Z, 32.95729299143953, 33.14136915745052, 352.46592116228345, -164.96447202617733, -25.853463654729673, 31.593839415747702
2024-03-10T12:10:51Z, 32.95734040293675, 33.14143302411138, 347.83046000249686, -162.94171540674424, -26.43784712878383, 31.482368059109955
2024-03-10T12:10:51Z, 32.95738801359638, 33.141497007728326, 343.2138580817342, -160.9187037093681, -27.194659912383592, 31.250952484667344
2024-03-10T12:10:51Z, 32.95743575648598, 33.14156106517891, 338.6010146967709, -160.12618168350852, -27.96544798445402, 31.04564018966806
2024-03-10T12:10:51Z, 32.957483549172736, 33.14162517687814, 333.9780092640281, -159.66353934801074, -28.55483068291402, 30.82831240544059
2024-03-10T12:10:51Z, 32.957531278880424, 33.14168931705316, 329.3334824966222, -159.48206858278454, -29.0178581997685, 30.689293125758887
2024-03-10T12:10:51Z, 32.95757886380227, 33.14175340989063, 324.6633798807264, -160.45998500790867, -29.28494444966674, 30.678177852986828
2024-03-10T12:10:51Z, 32.957626289020716, 33.14181741305415, 319.96882085655034, -162.11408868093412, -29.198766631704725, 30.800492029481124
2024-03-10T12:10:51Z, 32.95767365083329, 33.14188140090219, 315.2574828953773, -162.9638915582747, -28.826068001041836, 30.920728522106945
2024-03-10T12:10:51Z, 32.95772097271977, 33.14194541920795, 310.53050060159865, -163.63587245741158, -28.39712611293281, 31.088866090967223
2024-03-10T12:10:51Z, 32.9577682443979, 33.14200940805114, 305.79433303431273, -164.08212800003997, -28.076387639657305, 31.224291463688072
2024-03-10T12:10:51Z, 32.95781551906537, 33.14207341448345, 301.0570022579134, -164.0124592433384, -27.804620191079163, 31.311724199808
2024-03-10T12:10:51Z, 32.95786275239268, 33.14213740248531, 296.3137378604561, -164.90704502852606, -27.658214667251, 31.47506616901969
2024-03-10T12:10:51Z, 32.957909919472606, 33.14220132597916, 291.55976887475254, -166.67147587109727, -27.528143192647256, 31.613447718226162
2024-03-10T12:10:51Z, 32.95795700673658, 33.14226515637767, 286.7958209934712, -168.9372937420386, -27.24728964810184, 31.755952429779573
2024-03-10T12:10:51Z, 32.95800406552968, 33.14232894543606, 282.03107283968035, -170.05034649292, -26.886539100273822, 31.799343767420734
2024-03-10T12:10:51Z, 32.95805111900173, 33.14239273760719, 277.2727016051978, -170.26053684758804, -26.63480799554933, 31.835269416526476
2024-03-10T12:10:51Z, 32.958098175287205, 33.14245651744104, 272.5195336504966, -171.00460551985768, -26.422312418482726, 31.91989053098377
2024-03-10T12:10:51Z, 32.95814528117212, 33.14252031670699, 267.7794917398453, -172.02915946681986, -26.0836564045313, 32.02433526960243
2024-03-10T12:10:51Z, 32.95819240601996, 33.142584093728864, 263.04919257798497, -174.0024323567579, -25.689134924243362, 32.15153169388843
2024-03-10T12:10:51Z, 32.9582395334015, 33.142647829308785, 258.32068049817684, -176.74732901485342, -25.389134947870023, 32.233991089721975
2024-03-10T12:10:51Z, 32.95828668702781, 33.14271156285792, 253.594242094937, -179.28855047537854, -25.339950749240074, 32.21861270472703
2024-03-10T12:10:51Z, 32.95833381863289, 33.142775279958975, 248.87557077301742, 179.62005500906295, -25.6772650162766, 32.146157466036215
2024-03-10T12:10:51Z, 32.95838094156898, 33.142839021781114, 244.16209609974325, 179.49263218119248, -26.336270345008376, 32.10508523597398
2024-03-10T12:10:51Z, 32.95842805000569, 33.14290272188053, 239.43935771706998, 178.92257390184113, -27.25645908897815, 32.11652375164148
2024-03-10T12:10:51Z, 32.95847518458053, 33.142966466504284, 234.69734430157544, 179.09728619540036, -28.261985649042895, 32.075421368063274
2024-03-10T12:10:51Z, 32.958522295278165, 33.14303018526801, 229.92402197206022, 178.79505919158765, -29.159296237639516, 32.132975639154395
2024-03-10T12:10:51Z, 32.958569334929486, 33.14309376358838, 225.11152551206948, 177.5073679273429, -29.78897095766501, 32.1968825125792
2024-03-10T12:10:51Z, 32.958616262890814, 33.14315712585197, 220.25382985332013, 175.79227994608888, -30.217667078523217, 32.22579156785048
2024-03-10T12:10:51Z, 32.95866309490777, 33.14322031951929, 215.36034937506616, 175.32005439141614, -30.41891184287831, 32.15841604818763
2024-03-10T12:10:51Z, 32.95870990597508, 33.14328347441109, 210.4351527379364, 175.8052196139736, -30.47296091390372, 32.076933613359266
2024-03-10T12:10:51Z, 32.95875669029471, 33.14334658681378, 205.4901453584969, 176.87703428648086, -30.557772283016735, 32.00970085325253
2024-03-10T12:10:51Z, 32.95880344313665, 33.14340968114632, 200.53488457829656, 178.41285373415127, -30.618678789125983, 31.959006836397823
2024-03-10T12:10:51Z, 32.958850171419826, 33.14347271723115, 195.5638044591397, 179.19648963570245, -30.71273968874607, 31.974731411766665
2024-03-10T12:10:51Z, 32.95889689330098, 33.14353572890776, 190.57893625649214, -179.2999803273854, -30.983493320683117, 31.892554220205454
2024-03-10T12:10:51Z, 32.95894361273155, 33.143598773000505, 185.58311419393124, -177.35669436146114, -31.34484561703105, 31.852191812113993
2024-03-10T12:10:51Z, 32.95899033335983, 33.14366181797981, 180.56916969443859, -176.5964584647336, -31.591462593617063, 31.908775246566393
2024-03-10T12:10:51Z, 32.95903701803478, 33.14372480484238, 175.53434802744985, -176.664887613798, -31.560565797730643, 31.976110305848437
2024-03-10T12:10:51Z, 32.95908367977426, 33.143787741850495, 170.47266327109338, -177.37250862788926, -31.338192991937174, 32.03924413852432
2024-03-10T12:10:51Z, 32.95913028223651, 33.14385060539195, 165.39569296746254, -177.478817893053, -31.113615080531044, 32.02927488515526
2024-03-10T12:10:51Z, 32.95917685732985, 33.14391341535294, 160.3019570299834, -178.07900024880186, -30.841570828509067, 32.04600340032836
2024-03-10T12:10:51Z, 32.95922345694576, 33.143976261292956, 155.19784932142497, -177.66009231779788, -30.569740948794628, 31.977026636826494
2024-03-10T12:10:51Z, 32.959270084854225, 33.14403915767015, 150.10047219881417, -176.23810842485253, -30.26176882774391, 31.93762697651092
2024-03-10T12:10:51Z, 32.959316780645246, 33.14410215189296, 145.01672250112296, -174.3919004291686, -29.975135718890126, 31.922722827765803
2024-03-10T12:10:51Z, 32.959363563609685, 33.144165212078896, 139.9457675245911, -173.36791701934268, -29.66425932678922, 32.00705512742663
2024-03-10T12:10:51Z, 32.9594104571349, 33.14422836241055, 134.8916369321823, -172.09759111318883, -29.39275275863885, 32.008029120375696
2024-03-10T12:10:51Z, 32.959457417757825, 33.14429155923536, 129.84853887970448, -171.64087653461672, -29.33997802889143, 32.06660018312861
2024-03-10T12:10:51Z, 32.95950450069741, 33.14435483933485, 124.82095436975956, -170.66440471780783, -29.400123150136615, 32.03668600091068
2024-03-10T12:10:51Z, 32.95955173107659, 33.144418253118126, 119.81460660746993, -169.16901448151478, -29.41026501156164, 32.02810385539331
2024-03-10T12:10:51Z, 32.95959910041743, 33.14448174794031, 114.82261271444858, -168.28143057317862, -29.428575965166598, 32.07449404821309
2024-03-10T12:10:51Z, 32.95964666270255, 33.14454535365303, 109.85174354489745, -166.7320934153013, -29.351462442734732, 32.02170936471036
2024-03-10T12:10:51Z, 32.9596944507647, 33.14460911957052, 104.910042447567, -164.54319583205915, -29.095249353270667, 32.04176741483652
2024-03-10T12:10:51Z, 32.9597424217025, 33.144673007730326, 99.99013224511744, -162.693218933721, -28.83583018295173, 32.17430742298676
2024-03-10T12:10:51Z, 32.9597905459902, 33.14473696986535, 95.0796307820499, -162.25040819887565, -28.729910498726234, 32.32741191935593
2024-03-10T12:10:51Z, 32.959838812006986, 33.144801011430864, 90.16800871378184, -163.16413602885345, -28.663186841713035, 32.434741290795664
2024-03-10T12:10:51Z, 32.95988714343305, 33.14486508162467, 85.25363214090765, -165.00363189680294, -28.468809005031737, 32.56391054345008
2024-03-10T12:10:51Z, 32.95993546202263, 33.144929131326585, 80.33286791741253, -167.00780587478383, -28.229154283776072, 32.67908059683899
2024-03-10T12:10:51Z, 32.95998370779785, 33.14499308932741, 75.40279331335724, -169.34993563013307, -28.11840476450943, 32.735433587507316
2024-03-10T12:10:51Z, 32.960031929536456, 33.145057008680645, 70.4707743296653, -170.35948341055413, -28.070769032626306, 32.68440317094367
2024-03-10T12:10:51Z, 32.96008012723636, 33.145120924598274, 65.54051236990392, -170.44953872022765, -28.17367808468721, 32.626699919810186
2024-03-10T12:10:51Z, 32.960128255740706, 33.145184790707276, 60.597330821514134, -171.3945501648353, -28.611352976027227, 32.639794556289054
2024-03-10T12:10:51Z, 32.9601763014506, 33.14524857305339, 55.62349849593938, -173.2260538765429, -29.330203925099443, 32.5849720614595
2024-03-10T12:10:51Z, 32.96022421011443, 33.1453122353171, 50.61711032459736, -175.29095927072603, -30.125592097039146, 32.49919415863352
2024-03-10T12:10:51Z, 32.96027192531662, 33.145375700901205, 45.57039909785986, -177.83663768063954, -30.826510646009805, 32.48681655987809
2024-03-10T12:10:51Z, 32.96031948192803, 33.14543896436802, 40.477647600200775, 179.80257207879396, -31.47828061602626, 32.424990554541
2024-03-10T12:10:51Z, 32.96036687728919, 33.145502063863646, 35.34404944288731, 178.50528427701065, -32.00715699085694, 32.35946031620999
2024-03-10T12:10:51Z, 32.96041413363841, 33.14556497083404, 30.169682121643426, 176.9050994982256, -32.222230267206406, 32.381242703898465
2024-03-10T12:10:51Z, 32.96046133412958, 33.14562778784285, 24.95969819033146, 175.71075588411, -32.07033659366486, 32.32930861042605
2024-03-10T12:10:51Z, 32.96050844923719, 33.145690470762595, 19.714254477587343, 173.8173318245987, -31.744247187505998, 32.34470125161107
