Time, Longitude, Latitude, Altitude, Roll (deg), Pitch (deg), Yaw (deg)
2024-03-03T20:14:55Z, 0.0, 0.0, 1524.0, 0.0, 1.2722218725854067e-14, 0.0
2024-03-03T20:14:56Z, 9.142461776733398, -0.00015711915330030024, 1524.0003662109375, 0.01033557782198017, -0.0043309519160696745, 0.01033557782198017
2024-03-03T20:14:56Z, 18.29027557373047, 0.00014793008449487388, 1523.9970703125, 0.053814190021617685, 0.06822228397772116, 0.053814190021617685
2024-03-03T20:14:56Z, 27.44490623474121, 0.0009369394392706454, 1523.984619140625, 0.11801224860331833, 0.29445108262526287, 0.11801224860331833
2024-03-03T20:14:56Z, 36.61052322387695, 0.001911081257276237, 1523.9593505859375, 0.21857295033064417, 0.7029181929004312, 0.21857295033064417
2024-03-03T20:14:56Z, 45.78984451293945, 0.003327649552375078, 1523.9207763671875, 0.359816900116784, 1.3562365125435818, 0.359816900116784
2024-03-03T20:14:56Z, 54.98431396484375, 0.00534926587715745, 1523.8724365234375, 0.5501786745554029, 2.17354548636377, 0.5501786745554029
2024-03-03T20:14:56Z, 64.19588470458984, 0.008867790922522545, 1523.82080078125, 0.7807507598136653, 2.982426433634986, 0.7807507598136653
2024-03-03T20:14:56Z, 73.42493438720703, 0.01570831798017025, 1523.7723388671875, 1.0451167000944468, 3.712211228996515, 1.0451167000944468
2024-03-03T20:14:56Z, 82.6710433959961, 0.028805598616600037, 1523.73388671875, 1.3538489345418394, 4.3948062473824265, 1.3538489345418394
2024-03-03T20:14:56Z, 91.93266296386719, 0.05349889025092125, 1523.71484375, 1.7111667591547657, 5.0575463327379335, 1.7111667591547657
2024-03-03T20:14:56Z, 101.20746612548828, 0.09618961811065674, 1523.725341796875, 2.1136276518698334, 5.6999337350272725, 2.1136276518698334
2024-03-03T20:14:56Z, 110.49451446533203, 0.16084931790828705, 1523.7674560546875, 2.5709412602007444, 6.302903688729644, 2.5709412602007444
2024-03-03T20:14:56Z, 119.79204559326172, 0.2538608908653259, 1523.8455810546875, 3.0736241866500538, 6.8607218231500005, 3.0736241866500538
2024-03-03T20:14:56Z, 129.0979461669922, 0.38276931643486023, 1523.9638671875, 3.611547047235221, 7.368941685138663, 3.611547047235221
2024-03-03T20:14:56Z, 138.40968322753906, 0.5562752485275269, 1524.126708984375, 4.178707172892862, 7.826731699164182, 4.178707172892862
2024-03-03T20:14:56Z, 147.7249755859375, 0.7822332382202148, 1524.3363037109375, 4.773075783996073, 8.23065457252675, 4.773075783996073
2024-03-03T20:14:56Z, 157.042724609375, 1.0648231506347656, 1524.5904541015625, 5.393604446507255, 8.582344427985293, 5.393604446507255
2024-03-03T20:14:57Z, 166.3597412109375, 1.4130661487579346, 1524.8907470703125, 6.029694841268665, 8.891939827589045, 6.029694841268665
2024-03-03T20:14:57Z, 175.6736602783203, 1.8317197561264038, 1525.2353515625, 6.683521956644128, 9.154246412474215, 6.683521956644128
2024-03-03T20:14:57Z, 184.98101806640625, 2.3266618251800537, 1525.623291015625, 7.351376146140683, 9.377754961552773, 7.351376146140683
2024-03-03T20:14:57Z, 194.28036499023438, 2.8956634998321533, 1526.0487060546875, 8.039177903108259, 9.558422002836073, 8.039177903108259
2024-03-03T20:14:57Z, 203.5678253173828, 3.5437183380126953, 1526.5098876953125, 8.73803005237927, 9.709921575042479, 8.73803005237927
2024-03-03T20:14:57Z, 212.84295654296875, 4.268195152282715, 1527.001953125, 9.44916373555161, 9.827648423124112, 9.44916373555161
2024-03-03T20:14:57Z, 222.1026153564453, 5.074167251586914, 1527.5238037109375, 10.164874499241504, 9.922352411060924, 10.164874499241504
2024-03-03T20:14:57Z, 231.34657287597656, 5.958821773529053, 1528.070556640625, 10.888308499335391, 9.985469335407366, 10.888308499335391
2024-03-03T20:14:57Z, 240.57168579101562, 6.926761150360107, 1528.6417236328125, 11.60659253679509, 10.049714094740505, 11.60659253679509
2024-03-03T20:14:57Z, 249.7779541015625, 7.974895000457764, 1529.23291015625, 12.337831735563007, 10.050693373112756, 12.337831735563007
2024-03-03T20:14:57Z, 258.9615478515625, 9.110334396362305, 1529.842529296875, 13.055012697471748, 10.09256328649858, 13.055012697471748
2024-03-03T20:14:57Z, 268.1185302734375, 10.338920593261719, 1530.4718017578125, 13.765985017424947, 10.114726396581625, 13.765985017424947
2024-03-03T20:14:57Z, 277.2492370605469, 11.656905174255371, 1531.115966796875, 14.481539540537577, 10.079525309146671, 14.481539540537577
2024-03-03T20:14:57Z, 286.3498229980469, 13.070725440979004, 1531.7733154296875, 15.190318515993555, 10.094654178158251, 15.190318515993555
2024-03-03T20:14:57Z, 295.41650390625, 14.585531234741211, 1532.4454345703125, 15.892000924901891, 10.094554286641639, 15.892000924901891
2024-03-03T20:14:57Z, 304.4501647949219, 16.196855545043945, 1533.1285400390625, 16.590189692049766, 10.02321893717638, 16.590189692049766
2024-03-03T20:14:57Z, 313.44793701171875, 17.908470153808594, 1533.8203125, 17.292901751975478, 9.999466100564014, 17.292901751975478
2024-03-03T20:14:58Z, 322.411865234375, 19.713150024414062, 1534.5203857421875, 18.00130848212169, 9.939479964178377, 18.00130848212169
2024-03-03T20:14:58Z, 331.3441467285156, 21.604883193969727, 1535.2249755859375, 18.715710410811884, 9.831497234721414, 18.715710410811884
2024-03-03T20:14:58Z, 340.240966796875, 23.590116500854492, 1535.931884765625, 19.438742283518383, 9.780871872593279, 19.438742283518383
2024-03-03T20:14:58Z, 349.0982971191406, 25.674055099487305, 1536.642578125, 20.152804410297367, 9.716493924571324, 20.152804410297367
2024-03-03T20:14:58Z, 357.91748046875, 27.852041244506836, 1537.35400390625, 20.847979356473974, 9.581008584647659, 20.847979356473974
2024-03-03T20:14:58Z, 366.6944274902344, 30.130035400390625, 1538.0635986328125, 21.553254444885734, 9.502208692193221, 21.553254444885734
2024-03-03T20:14:58Z, 375.4259033203125, 32.51295471191406, 1538.7728271484375, 22.247778815543896, 9.41286213388664, 22.247778815543896
2024-03-03T20:14:58Z, 384.1143493652344, 34.99530792236328, 1539.479248046875, 22.893144607198185, 9.256648877379277, 22.893144607198185
2024-03-03T20:14:58Z, 392.7540283203125, 37.582130432128906, 1540.1798095703125, 23.559856447556054, 9.16014001195429, 23.559856447556054
2024-03-03T20:14:58Z, 401.34344482421875, 40.27753448486328, 1540.8763427734375, 24.22582891993627, 9.060594273669585, 24.22582891993627
2024-03-03T20:14:58Z, 409.88739013671875, 43.075721740722656, 1541.5675048828125, 24.836357331728905, 8.909776866606533, 24.836357331728905
2024-03-03T20:14:58Z, 418.3797302246094, 45.979713439941406, 1542.2508544921875, 25.463382357914416, 8.814449623907958, 25.463382357914416
2024-03-03T20:14:58Z, 426.822998046875, 48.98862838745117, 1542.928955078125, 26.082786600533485, 8.710367786240719, 26.082786600533485
2024-03-03T20:14:58Z, 435.2229309082031, 52.09531784057617, 1543.6004638671875, 26.604645496521016, 8.548721968022258, 26.604645496521016
2024-03-03T20:14:58Z, 443.57159423828125, 55.30116653442383, 1544.2626953125, 27.104243098456184, 8.455182527338934, 27.104243098456184
2024-03-03T20:14:58Z, 451.8692932128906, 58.60621643066406, 1544.9180908203125, 27.683721470281945, 8.353609076644382, 27.683721470281945
2024-03-03T20:14:58Z, 460.12261962890625, 62.00538635253906, 1545.565673828125, 28.26831223870146, 8.190625395122245, 28.26831223870146
2024-03-03T20:14:59Z, 468.32379150390625, 65.5016860961914, 1546.2027587890625, 28.916323021111833, 8.090901218145474, 28.916323021111833
2024-03-03T20:14:59Z, 476.47442626953125, 69.09542083740234, 1546.8321533203125, 29.60827924064207, 7.9830952198332845, 29.60827924064207
2024-03-03T20:14:59Z, 484.5799255371094, 72.78150939941406, 1547.45263671875, 30.256228551349913, 7.816187594632975, 30.256228551349913
2024-03-03T20:14:59Z, 492.6333923339844, 76.5624771118164, 1548.061767578125, 30.94462965741716, 7.711810351284133, 30.94462965741716
2024-03-03T20:14:59Z, 500.639404296875, 80.43331909179688, 1548.66259765625, 31.675060332542078, 7.5879781678581555, 31.675060332542078
2024-03-03T20:14:59Z, 508.6020812988281, 84.38880157470703, 1549.253173828125, 32.39476078048091, 7.40896830122223, 32.39476078048091
2024-03-03T20:14:59Z, 516.5127563476562, 88.43338012695312, 1549.8311767578125, 33.15679132580089, 7.293911203332427, 33.15679132580089
2024-03-03T20:14:59Z, 524.367431640625, 92.57307434082031, 1550.3983154296875, 33.925272984791945, 7.171183803004698, 33.925272984791945
2024-03-03T20:14:59Z, 532.1697998046875, 96.8048324584961, 1550.9532470703125, 34.660744339524335, 6.988103997397092, 34.660744339524335
2024-03-03T20:14:59Z, 539.9132690429688, 101.13182067871094, 1551.493408203125, 35.411945619915265, 6.868527875597679, 35.411945619915265
2024-03-03T20:14:59Z, 547.5977172851562, 105.5541000366211, 1552.021484375, 36.160711937867084, 6.7432540953700055, 36.160711937867084
2024-03-03T20:14:59Z, 555.22705078125, 110.0672607421875, 1552.5362548828125, 36.88084951791279, 6.559625740194682, 36.88084951791279
2024-03-03T20:14:59Z, 562.7960815429688, 114.67350006103516, 1553.035888671875, 37.6103717778781, 6.439298724473391, 37.6103717778781
2024-03-03T20:14:59Z, 570.3091430664062, 119.36776733398438, 1553.5233154296875, 38.33690924517611, 6.303757035489072, 38.33690924517611
2024-03-03T20:14:59Z, 577.7700805664062, 124.14476013183594, 1553.997314453125, 39.045093994174294, 6.117929359401005, 39.045093994174294
2024-03-03T20:14:59Z, 585.1719360351562, 129.0086669921875, 1554.4556884765625, 39.76836663104904, 5.9987613414045, 39.76836663104904
2024-03-03T20:14:59Z, 592.5108032226562, 133.96266174316406, 1554.900390625, 40.480738286008446, 5.875403429239015, 40.480738286008446
2024-03-03T20:15:00Z, 599.791259765625, 139.00155639648438, 1555.3306884765625, 41.129356955254956, 5.700180902497862, 41.129356955254956
2024-03-03T20:15:00Z, 607.0079956054688, 144.12750244140625, 1555.7449951171875, 41.78893466302475, 5.583050842194959, 41.78893466302475
2024-03-03T20:15:00Z, 614.1656494140625, 149.3352813720703, 1556.1456298828125, 42.45405165421142, 5.441995483003149, 42.45405165421142
2024-03-03T20:15:00Z, 621.2684936523438, 154.6196746826172, 1556.5316162109375, 43.11047722967925, 5.273314996826398, 43.11047722967925
2024-03-03T20:15:00Z, 628.3115844726562, 159.98318481445312, 1556.9019775390625, 43.79238965603498, 5.153273995276601, 43.79238965603498
2024-03-03T20:15:00Z, 635.2981567382812, 165.42242431640625, 1557.2581787109375, 44.47259453509821, 5.0180610091460895, 44.47259453509821
2024-03-03T20:15:00Z, 642.2294921875, 170.9355010986328, 1557.600341796875, 45.11883629851355, 4.883366690505676, 45.11883629851355
2024-03-03T20:15:00Z, 649.10986328125, 176.5177764892578, 1557.92822265625, 45.70802207669719, 4.737596366352442, 45.70802207669719
2024-03-03T20:15:00Z, 655.9341430664062, 182.17176818847656, 1558.241943359375, 46.30527430829061, 4.6163161123551095, 46.30527430829061
2024-03-03T20:15:00Z, 662.7059326171875, 187.89378356933594, 1558.541015625, 46.86030914062419, 4.4511305485992905, 46.86030914062419
2024-03-03T20:15:00Z, 669.4194946289062, 193.6861114501953, 1558.823974609375, 47.457233523137454, 4.338765825902941, 47.457233523137454
2024-03-03T20:15:00Z, 676.0800170898438, 199.5446014404297, 1559.0927734375, 48.07607939779188, 4.204302879920662, 48.07607939779188
2024-03-03T20:15:00Z, 682.693115234375, 205.4647674560547, 1559.3472900390625, 48.656498628175804, 4.069153499926797, 48.656498628175804
2024-03-03T20:15:00Z, 689.2536010742188, 211.44924926757812, 1559.5877685546875, 49.23234163181583, 3.9509182296388214, 49.23234163181583
2024-03-03T20:15:00Z, 695.7659912109375, 217.49386596679688, 1559.8135986328125, 49.71705283645495, 3.7928040461080808, 49.71705283645495
2024-03-03T20:15:00Z, 702.22509765625, 223.6005859375, 1560.02392578125, 50.186040945624704, 3.6852140525283934, 50.186040945624704
2024-03-03T20:15:00Z, 708.6326904296875, 229.76708984375, 1560.2188720703125, 50.729092211059495, 3.539642657634735, 50.729092211059495
2024-03-03T20:15:01Z, 714.9848022460938, 235.99578857421875, 1560.3980712890625, 51.31269089450206, 3.414553719401475, 51.31269089450206
2024-03-03T20:15:01Z, 721.2860107421875, 242.28314208984375, 1560.5614013671875, 51.82768374282644, 3.254661338809004, 51.82768374282644
2024-03-03T20:15:01Z, 727.5311889648438, 248.63092041015625, 1560.7078857421875, 52.33036176007728, 3.140515003956339, 52.33036176007728
2024-03-03T20:15:01Z, 733.7238159179688, 255.03639221191406, 1560.837890625, 52.832179173492705, 3.0006303818769506, 52.832179173492705
2024-03-03T20:15:01Z, 739.8594360351562, 261.5015869140625, 1560.9512939453125, 53.34786187092325, 2.8769783446903325, 53.34786187092325
2024-03-03T20:15:01Z, 745.9432373046875, 268.02239990234375, 1561.0477294921875, 53.777986203715635, 2.714669784678969, 53.777986203715635
2024-03-03T20:15:01Z, 751.9684448242188, 274.60052490234375, 1561.1253662109375, 54.2017140643503, 2.6121960296744446, 54.2017140643503
2024-03-03T20:15:01Z, 757.933837890625, 281.2362365722656, 1561.1851806640625, 54.70657091194638, 2.4812499907844874, 54.70657091194638
2024-03-03T20:15:01Z, 763.8375244140625, 287.9311828613281, 1561.22607421875, 55.194816739480984, 2.3593648381587866, 55.194816739480984
2024-03-03T20:15:01Z, 769.6766357421875, 294.6851806640625, 1561.2489013671875, 55.53533582055197, 2.2631885175690143, 55.53533582055197
2024-03-03T20:15:01Z, 775.4552001953125, 301.4933776855469, 1561.25341796875, 55.792755405086, 2.12917422963784, 55.792755405086
2024-03-03T20:15:01Z, 781.1663208007812, 308.3545837402344, 1561.2384033203125, 56.13808293933267, 2.0231056606957734, 56.13808293933267
2024-03-03T20:15:01Z, 786.813232421875, 315.2685546875, 1561.203857421875, 56.65430180661306, 1.8425235698902758, 56.65430180661306
2024-03-03T20:15:01Z, 792.3905029296875, 322.2384033203125, 1561.1474609375, 57.26423428440062, 1.71470106188513, 57.26423428440062
2024-03-03T20:15:01Z, 797.8936157226562, 329.267333984375, 1561.0709228515625, 57.829661249556366, 1.58798419075188, 57.829661249556366
2024-03-03T20:15:01Z, 803.3290405273438, 336.3510437011719, 1560.973876953125, 58.23775139208629, 1.4275665259235522, 58.23775139208629
2024-03-03T20:15:01Z, 808.6930541992188, 343.4893798828125, 1560.8553466796875, 58.573134170901426, 1.3200716213837165, 58.573134170901426
2024-03-03T20:15:02Z, 813.9872436523438, 350.6772766113281, 1560.7152099609375, 58.97510446393502, 1.1532572709542603, 58.97510446393502
2024-03-03T20:15:02Z, 819.2022705078125, 357.91546630859375, 1560.550537109375, 59.562739789177066, 1.019409682327517, 59.562739789177066
2024-03-03T20:15:02Z, 824.3343505859375, 365.2093505859375, 1560.3623046875, 60.209784099819885, 0.878572195498059, 60.209784099819885
2024-03-03T20:15:02Z, 829.3902587890625, 372.55670166015625, 1560.1513671875, 60.75693689385126, 0.722186743518419, 60.75693689385126
2024-03-03T20:15:02Z, 834.368896484375, 379.9552307128906, 1559.9183349609375, 61.087388276085655, 0.6235601459247572, 61.087388276085655
2024-03-03T20:15:02Z, 839.275634765625, 387.3997497558594, 1559.663818359375, 61.261039005544056, 0.5034221343444045, 61.261039005544056
2024-03-03T20:15:02Z, 844.1046142578125, 394.8855285644531, 1559.3870849609375, 61.45638924599559, 0.4230262721408588, 61.45638924599559
2024-03-03T20:15:02Z, 848.8580932617188, 402.40899658203125, 1559.0882568359375, 61.80414832758679, 0.2677905864584552, 61.80414832758679
2024-03-03T20:15:02Z, 853.5280151367188, 409.9726257324219, 1558.7646484375, 62.424472938196516, 0.12881770125177106, 62.424472938196516
2024-03-03T20:15:02Z, 858.1141967773438, 417.5816345214844, 1558.417236328125, 63.20801857940204, -0.021815265690790366, 63.20801857940204
2024-03-03T20:15:02Z, 862.6187133789062, 425.2380676269531, 1558.0482177734375, 63.98979520161253, -0.19279988516804894, 63.98979520161253
2024-03-03T20:15:02Z, 867.0482177734375, 432.93853759765625, 1557.6573486328125, 64.61671094477131, -0.39502692549459645, 64.61671094477131
2024-03-03T20:15:02Z, 871.4012451171875, 440.68084716796875, 1557.2449951171875, 64.98849863186263, -0.5053958989319796, 64.98849863186263
2024-03-03T20:15:02Z, 875.6834106445312, 448.4599304199219, 1556.8121337890625, 65.16695098430755, -0.6224460246772517, 65.16695098430755
2024-03-03T20:15:02Z, 879.88916015625, 456.2703552246094, 1556.3582763671875, 65.33002175074161, -0.6914069229105797, 65.33002175074161
2024-03-03T20:15:02Z, 884.0216064453125, 464.10870361328125, 1555.8836669921875, 65.6095199217677, -0.8277205299928149, 65.6095199217677
2024-03-03T20:15:02Z, 888.0738525390625, 471.97528076171875, 1555.385986328125, 66.1431830921883, -0.9537382672314907, 66.1431830921883
2024-03-03T20:15:03Z, 892.0501098632812, 479.8713073730469, 1554.8665771484375, 66.84767612394009, -1.12122496440737, 66.84767612394009
2024-03-03T20:15:03Z, 895.9465942382812, 487.80145263671875, 1554.32421875, 67.57229772317592, -1.2656355473072436, 67.57229772317592
2024-03-03T20:15:03Z, 899.76513671875, 495.76788330078125, 1553.7608642578125, 68.17795791763763, -1.4028844634189477, 68.17795791763763
2024-03-03T20:15:03Z, 903.5111083984375, 503.76971435546875, 1553.1763916015625, 68.7007884080346, -1.5840300448309714, 68.7007884080346
2024-03-03T20:15:03Z, 907.1815185546875, 511.8057861328125, 1552.570556640625, 69.1270605141351, -1.703558675471312, 69.1270605141351
2024-03-03T20:15:03Z, 910.7806396484375, 519.8731689453125, 1551.944091796875, 69.48607574747847, -1.8528578595479166, 69.48607574747847
2024-03-03T20:15:03Z, 914.3015747070312, 527.9690551757812, 1551.296142578125, 69.92420506197811, -1.9736168847342113, 69.92420506197811
2024-03-03T20:15:03Z, 917.7462768554688, 536.0914306640625, 1550.6263427734375, 70.51231850046206, -2.170306482593303, 70.51231850046206
2024-03-03T20:15:03Z, 921.1070556640625, 544.239501953125, 1549.9324951171875, 71.25158402527839, -2.330259267671247, 71.25158402527839
2024-03-03T20:15:03Z, 924.384033203125, 552.4137573242188, 1549.21630859375, 71.99367041822194, -2.4942792169565213, 71.99367041822194
2024-03-03T20:15:03Z, 927.58447265625, 560.61474609375, 1548.4779052734375, 72.61878299143984, -2.6865592873761353, 72.61878299143984
2024-03-03T20:15:03Z, 930.7042846679688, 568.8411865234375, 1547.7166748046875, 73.12468144288434, -2.8251662371939084, 73.12468144288434
2024-03-03T20:15:03Z, 933.7479248046875, 577.092041015625, 1546.9326171875, 73.57702438104678, -3.0012958984342037, 73.57702438104678
2024-03-03T20:15:03Z, 936.7070922851562, 585.3621826171875, 1546.1236572265625, 74.11531158953548, -3.1281491599074425, 74.11531158953548
2024-03-03T20:15:03Z, 939.5865478515625, 593.6530151367188, 1545.2930908203125, 74.7383272946782, -3.2886071655405558, 74.7383272946782
2024-03-03T20:15:03Z, 942.3938598632812, 601.9656982421875, 1544.440185546875, 75.35570809375565, -3.503145968691595, 75.35570809375565
2024-03-03T20:15:03Z, 945.1210327148438, 610.2954711914062, 1543.5631103515625, 75.94557006066712, -3.6427797947623968, 75.94557006066712
2024-03-03T20:15:04Z, 947.7616577148438, 618.64453125, 1542.662841796875, 76.53522029171432, -3.7874726565740624, 76.53522029171432
2024-03-03T20:15:04Z, 950.319580078125, 627.0146484375, 1541.73876953125, 77.19387592394617, -4.006528776087419, 77.19387592394617
2024-03-03T20:15:04Z, 952.789306640625, 635.4015502929688, 1540.78955078125, 77.89170269106802, -4.177132814289174, 77.89170269106802
2024-03-03T20:15:04Z, 955.17724609375, 643.8060913085938, 1539.818115234375, 78.56123198445852, -4.375579264868841, 78.56123198445852
2024-03-03T20:15:04Z, 957.4892578125, 652.22705078125, 1538.8233642578125, 79.21763365426426, -4.598640436556763, 79.21763365426426
2024-03-03T20:15:04Z, 959.7164916992188, 660.660400390625, 1537.8037109375, 79.89182113666871, -4.755445358200977, 79.89182113666871
2024-03-03T20:15:04Z, 961.8505249023438, 669.1073608398438, 1536.7596435546875, 80.59222288510766, -4.9235457051850995, 80.59222288510766
2024-03-03T20:15:04Z, 963.89453125, 677.56884765625, 1535.6904296875, 81.33668618388238, -5.160452097207461, 81.33668618388238
2024-03-03T20:15:04Z, 965.8431396484375, 686.0392456054688, 1534.5953369140625, 82.07635468985974, -5.356846929715185, 82.07635468985974
2024-03-03T20:15:04Z, 967.6998291015625, 694.5176391601562, 1533.4747314453125, 82.80243794957794, -5.593221847642755, 82.80243794957794
2024-03-03T20:15:04Z, 969.459716796875, 703.0021362304688, 1532.3267822265625, 83.52514709584617, -5.771620839234787, 83.52514709584617
2024-03-03T20:15:04Z, 971.1278686523438, 711.4915161132812, 1531.1546630859375, 84.26575133773981, -5.983913363922539, 84.26575133773981
2024-03-03T20:15:04Z, 972.7103881835938, 719.9853515625, 1529.9571533203125, 85.01414882547645, -6.237482856198793, 85.01414882547645
2024-03-03T20:15:04Z, 974.2005004882812, 728.4816284179688, 1528.732421875, 85.76626876631074, -6.427660509014512, 85.76626876631074
2024-03-03T20:15:04Z, 975.6004028320312, 736.9794921875, 1527.48291015625, 86.52697425493174, -6.6382429250888215, 86.52697425493174
2024-03-03T20:15:04Z, 976.91552734375, 745.4785766601562, 1526.2081298828125, 87.29754936690341, -6.898925205611998, 87.29754936690341
2024-03-03T20:15:04Z, 978.1405639648438, 753.97705078125, 1524.90673828125, 88.06366436534707, -7.120301455009042, 88.06366436534707
2024-03-03T20:15:05Z, 979.2786865234375, 762.4737548828125, 1523.5789794921875, 88.81911060830716, -7.382764280471476, 88.81911060830716
2024-03-03T20:15:05Z, 980.3248291015625, 770.966552734375, 1522.2232666015625, 89.57439975691634, -7.602836390623872, 89.57439975691634
2024-03-03T20:15:05Z, 981.282470703125, 779.4546508789062, 1520.8402099609375, 90.32146535776482, -7.851448446223166, 90.32146535776482
2024-03-03T20:15:05Z, 982.1463623046875, 787.9359130859375, 1519.4287109375, 91.06916616620612, -8.078233778556038, 91.06916616620612
2024-03-03T20:15:05Z, 982.92041015625, 796.4095458984375, 1517.9888916015625, 91.80923765334451, -8.350796746253629, 91.80923765334451
2024-03-03T20:15:05Z, 983.5997924804688, 804.8733520507812, 1516.519287109375, 92.55153578215231, -8.589896909660034, 92.55153578215231
2024-03-03T20:15:05Z, 984.1885986328125, 813.3267822265625, 1515.0201416015625, 93.28164202329167, -8.8693097033215, 93.28164202329167
2024-03-03T20:15:05Z, 984.6821899414062, 821.7674560546875, 1513.4898681640625, 94.0150745665568, -9.11617835313515, 94.0150745665568
2024-03-03T20:15:05Z, 985.0847778320312, 830.1949462890625, 1511.9288330078125, 94.73529752396713, -9.403538071895925, 94.73529752396713
2024-03-03T20:15:05Z, 985.3922119140625, 838.60693359375, 1510.33544921875, 95.46011036849973, -9.660200359205726, 95.46011036849973
2024-03-03T20:15:05Z, 985.6087646484375, 847.0029907226562, 1508.7099609375, 96.17079155163955, -9.957359691878178, 96.17079155163955
2024-03-03T20:15:05Z, 985.7303466796875, 855.3807373046875, 1507.050537109375, 96.88749013143816, -10.225283253582036, 96.88749013143816
2024-03-03T20:15:05Z, 985.761474609375, 863.7399291992188, 1505.3577880859375, 97.58974286114218, -10.533428091760808, 97.58974286114218
2024-03-03T20:15:05Z, 985.6982421875, 872.0779418945312, 1503.629638671875, 98.29874381774619, -10.8131994703537, 98.29874381774619
2024-03-03T20:15:05Z, 985.5452270507812, 880.3948364257812, 1501.8668212890625, 98.9931213393372, -11.132636318777795, 98.9931213393372
2024-03-03T20:15:05Z, 985.2987670898438, 888.6879272460938, 1500.0672607421875, 99.69486863504265, -11.42424441520232, 99.69486863504265
2024-03-03T20:15:05Z, 984.9633178710938, 896.957275390625, 1498.2315673828125, 100.38188321270837, -11.754768368196638, 100.38188321270837
2024-03-03T20:15:06Z, 984.5354614257812, 905.2000732421875, 1496.35791015625, 101.07690960227053, -12.057828130538335, 101.07690960227053
2024-03-03T20:15:06Z, 984.0197143554688, 913.4166870117188, 1494.447021484375, 101.75634950014673, -12.400291254201836, 101.75634950014673
2024-03-03T20:15:06Z, 983.4127807617188, 921.6041870117188, 1492.4967041015625, 102.44393781370273, -12.716916626008825, 102.44393781370273
2024-03-03T20:15:06Z, 982.71923828125, 929.7628784179688, 1490.508056640625, 103.11605574878867, -13.070914231633184, 103.11605574878867
2024-03-03T20:15:06Z, 981.9359130859375, 937.8898315429688, 1488.478759765625, 103.79689583544472, -13.3998100382841, 103.79689583544472
2024-03-03T20:15:06Z, 981.0675048828125, 945.9856567382812, 1486.409912109375, 104.46094048693169, -13.767837706237312, 104.46094048693169
2024-03-03T20:15:06Z, 980.1119384765625, 954.047607421875, 1484.2994384765625, 105.13139868604931, -14.118620000309889, 105.13139868604931
2024-03-03T20:15:06Z, 979.0744018554688, 962.0765380859375, 1482.1480712890625, 105.78911858236486, -14.499021409718225, 105.78911858236486
2024-03-03T20:15:06Z, 977.9520263671875, 970.0693359375, 1479.953857421875, 106.45773263040658, -14.852697142677949, 106.45773263040658
2024-03-03T20:15:06Z, 976.751220703125, 978.028076171875, 1477.7191162109375, 107.10296011073018, -15.257722237817827, 107.10296011073018
2024-03-03T20:15:06Z, 975.4790649414062, 985.9544677734375, 1475.44384765625, 107.75517487457469, -15.657411247668632, 107.75517487457469
2024-03-03T20:15:06Z, 974.132080078125, 993.845458984375, 1473.1265869140625, 108.41623473339438, -16.034929463473578, 108.41623473339438
2024-03-03T20:15:06Z, 972.716064453125, 1001.703369140625, 1470.769775390625, 109.0469685522992, -16.469908353218546, 109.0469685522992
2024-03-03T20:15:06Z, 971.2379150390625, 1009.5302124023438, 1468.373291015625, 109.67221772930051, -16.91684690420021, 109.67221772930051
2024-03-03T20:15:06Z, 969.6945190429688, 1017.32275390625, 1465.9346923828125, 110.30758241646261, -17.33104835849, 110.30758241646261
2024-03-03T20:15:06Z, 968.0897216796875, 1025.0821533203125, 1463.455078125, 110.91979959252753, -17.779450277501336, 110.91979959252753
2024-03-03T20:15:06Z, 966.4207763671875, 1032.804931640625, 1460.931396484375, 111.53907918419425, -18.207392364853902, 111.53907918419425
2024-03-03T20:15:07Z, 964.69287109375, 1040.493896484375, 1458.3665771484375, 112.12243198082669, -18.688432342814142, 112.12243198082669
2024-03-03T20:15:07Z, 962.9127197265625, 1048.151611328125, 1455.7608642578125, 112.69761587121181, -19.18092825555979, 112.69761587121181
2024-03-03T20:15:07Z, 961.0773315429688, 1055.7745361328125, 1453.1116943359375, 113.28322263027036, -19.641264222598434, 113.28322263027036
2024-03-03T20:15:07Z, 959.190185546875, 1063.3641357421875, 1450.42041015625, 113.84273806669947, -20.132966125853066, 113.84273806669947
2024-03-03T20:15:07Z, 957.2489013671875, 1070.9169921875, 1447.6837158203125, 114.41017652256579, -20.60430723519189, 114.41017652256579
2024-03-03T20:15:07Z, 955.2579956054688, 1078.4361572265625, 1444.9049072265625, 114.93715293778895, -21.12421440462409, 114.93715293778895
2024-03-03T20:15:07Z, 953.2235717773438, 1085.9246826171875, 1442.0848388671875, 115.4538840692571, -21.653460150198992, 115.4538840692571
2024-03-03T20:15:07Z, 951.1430053710938, 1093.3787841796875, 1439.220703125, 115.98259535252944, -22.14962558207623, 115.98259535252944
2024-03-03T20:15:07Z, 949.019287109375, 1100.8004150390625, 1436.314208984375, 116.48283840734118, -22.673038346099936, 116.48283840734118
2024-03-03T20:15:07Z, 946.850341796875, 1108.185791015625, 1433.36181640625, 116.99166017975044, -23.174708910448203, 116.99166017975044
2024-03-03T20:15:07Z, 944.6399536132812, 1115.538330078125, 1430.3670654296875, 117.45698730752507, -23.720796194969065, 117.45698730752507
2024-03-03T20:15:07Z, 942.3938598632812, 1122.861572265625, 1427.3316650390625, 117.9064410756686, -24.270436885405623, 117.9064410756686
2024-03-03T20:15:07Z, 940.10986328125, 1130.15234375, 1424.2528076171875, 118.34543099400365, -24.76520554359759, 118.34543099400365
2024-03-03T20:15:07Z, 937.7904663085938, 1137.412109375, 1421.13232421875, 118.75863011803274, -25.28873442083719, 118.75863011803274
2024-03-03T20:15:07Z, 935.4341430664062, 1144.637451171875, 1417.9669189453125, 119.17203414773694, -25.78151890907527, 119.17203414773694
2024-03-03T20:15:07Z, 933.0427856445312, 1151.8302001953125, 1414.7586669921875, 119.5591829302716, -26.323552476323727, 119.5591829302716
2024-03-03T20:15:07Z, 930.6154174804688, 1158.9849853515625, 1411.5015869140625, 119.94622242977954, -26.85663337311759, 119.94622242977954
2024-03-03T20:15:08Z, 928.1497802734375, 1166.0975341796875, 1408.1929931640625, 120.29815475695362, -27.318294396855215, 120.29815475695362
2024-03-03T20:15:08Z, 925.648681640625, 1173.1710205078125, 1404.8360595703125, 120.60398330723011, -27.810745913371257, 120.60398330723011
2024-03-03T20:15:08Z, 923.1132202148438, 1180.203125, 1401.4278564453125, 120.92135487720392, -28.303858250689498, 120.92135487720392
2024-03-03T20:15:08Z, 920.5419311523438, 1187.18994140625, 1397.9659423828125, 121.20544976554143, -28.72245493171019, 121.20544976554143
2024-03-03T20:15:08Z, 917.9376831054688, 1194.1356201171875, 1394.4544677734375, 121.42286834720127, -29.145424641346985, 121.42286834720127
2024-03-03T20:15:08Z, 915.30224609375, 1201.0382080078125, 1390.8914794921875, 121.59542624639248, -29.504241799204436, 121.59542624639248
2024-03-03T20:15:08Z, 912.63525390625, 1207.894775390625, 1387.2764892578125, 121.65699357157098, -29.717183191863338, 121.65699357157098
2024-03-03T20:15:08Z, 909.9407958984375, 1214.7125244140625, 1383.6162109375, 121.585604434366, -29.861211390891395, 121.585604434366
2024-03-03T20:15:08Z, 907.2254638671875, 1221.49951171875, 1379.9178466796875, 121.40521913838596, -29.868502617830384, 121.40521913838596
2024-03-03T20:15:08Z, 904.4902954101562, 1228.25634765625, 1376.1839599609375, 121.07898198286948, -29.656640395060343, 121.07898198286948
2024-03-03T20:15:08Z, 901.7384643554688, 1234.990966796875, 1372.4207763671875, 120.62739719570492, -29.341505712039712, 120.62739719570492
2024-03-03T20:15:08Z, 898.9705200195312, 1241.702392578125, 1368.626708984375, 120.1901284850407, -28.95019051411134, 120.1901284850407
2024-03-03T20:15:08Z, 896.18505859375, 1248.3883056640625, 1364.8011474609375, 119.74928075525139, -28.5390523996643, 119.74928075525139
2024-03-03T20:15:08Z, 893.3836059570312, 1255.04931640625, 1360.9459228515625, 119.35562963262689, -28.193615582390905, 119.35562963262689
2024-03-03T20:15:08Z, 890.5650634765625, 1261.6810302734375, 1357.0589599609375, 119.10197006723095, -28.005764889648045, 119.10197006723095
2024-03-03T20:15:08Z, 887.7315673828125, 1268.2869873046875, 1353.14453125, 119.00196243740362, -28.09591484895575, 119.00196243740362
2024-03-03T20:15:08Z, 884.8858642578125, 1274.8719482421875, 1349.20458984375, 119.09964780291314, -28.44013418500959, 119.09964780291314
2024-03-03T20:15:09Z, 882.0263061523438, 1281.4327392578125, 1345.2349853515625, 119.35015182091253, -28.918525757119163, 119.35015182091253
2024-03-03T20:15:09Z, 879.15380859375, 1287.97314453125, 1341.2376708984375, 119.6134146322815, -29.448346946131636, 119.6134146322815
2024-03-03T20:15:09Z, 876.2679443359375, 1294.490234375, 1337.21044921875, 119.85676061203071, -29.89016456278308, 119.85676061203071
2024-03-03T20:15:09Z, 873.3710327148438, 1300.9903564453125, 1333.16064453125, 119.91875140893775, -30.18494869717166, 119.91875140893775
2024-03-03T20:15:09Z, 870.4681396484375, 1307.4814453125, 1329.0963134765625, 119.7993460418676, -30.209848151790943, 119.7993460418676
2024-03-03T20:15:09Z, 867.558837890625, 1313.9620361328125, 1325.0172119140625, 119.56427825139242, -29.944474811968437, 119.56427825139242
2024-03-03T20:15:09Z, 864.6433715820312, 1320.4366455078125, 1320.92724609375, 119.22670298185372, -29.531275687939345, 119.22670298185372
2024-03-03T20:15:09Z, 861.7218017578125, 1326.9049072265625, 1316.825927734375, 118.89236522198159, -29.06223293725623, 118.89236522198159
2024-03-03T20:15:09Z, 858.79541015625, 1333.3731689453125, 1312.7197265625, 118.5258845918754, -28.595777120721255, 118.5258845918754
2024-03-03T20:15:09Z, 855.8648071289062, 1339.8409423828125, 1308.6087646484375, 118.19314509626905, -28.11161233121573, 118.19314509626905
2024-03-03T20:15:09Z, 852.9312133789062, 1346.3140869140625, 1304.5, 117.85944937417891, -27.630570645708197, 117.85944937417891
2024-03-03T20:15:09Z, 849.9946899414062, 1352.791259765625, 1300.3939208984375, 117.58844112829114, -27.13949370476262, 117.58844112829114
2024-03-03T20:15:09Z, 847.054931640625, 1359.2791748046875, 1296.2989501953125, 117.29128691826057, -26.67081466165281, 117.29128691826057
2024-03-03T20:15:09Z, 844.113525390625, 1365.779052734375, 1292.2171630859375, 117.04145225879984, -26.20552680746591, 117.04145225879984
2024-03-03T20:15:09Z, 841.1693115234375, 1372.287353515625, 1288.147216796875, 116.8551246982419, -25.73578225484557, 116.8551246982419
2024-03-03T20:15:09Z, 838.2207641601562, 1378.81005859375, 1284.0975341796875, 116.63196875767923, -25.28552764702187, 116.63196875767923
2024-03-03T20:15:09Z, 835.268310546875, 1385.3533935546875, 1280.0750732421875, 116.44009508351523, -24.843377058648386, 116.44009508351523
2024-03-03T20:15:10Z, 832.3103637695312, 1391.9144287109375, 1276.0792236328125, 116.33075741528167, -24.398661734241564, 116.33075741528167
2024-03-03T20:15:10Z, 829.3446655273438, 1398.4964599609375, 1272.115478515625, 116.21632442592728, -23.962791504809907, 116.21632442592728
2024-03-03T20:15:10Z, 826.3705444335938, 1405.096435546875, 1268.182373046875, 116.1658903090959, -23.528664681163896, 116.1658903090959
2024-03-03T20:15:10Z, 823.3843383789062, 1411.7183837890625, 1264.2867431640625, 116.07748034047926, -23.101829084456874, 116.07748034047926
2024-03-03T20:15:10Z, 820.3841552734375, 1418.366943359375, 1260.435302734375, 116.01946471366917, -22.682595488296077, 116.01946471366917
2024-03-03T20:15:10Z, 817.3682250976562, 1425.037841796875, 1256.625732421875, 116.04126667749985, -22.270359420939958, 116.04126667749985
2024-03-03T20:15:10Z, 814.3323364257812, 1431.7325439453125, 1252.8626708984375, 116.0334666014677, -21.858714164947045, 116.0334666014677
2024-03-03T20:15:10Z, 811.2782592773438, 1438.447021484375, 1249.142333984375, 116.06877867947667, -21.454855324607944, 116.06877867947667
2024-03-03T20:15:10Z, 808.2057495117188, 1445.176025390625, 1245.4599609375, 116.17064412075824, -21.060053315108284, 116.17064412075824
2024-03-03T20:15:10Z, 805.109130859375, 1451.92138671875, 1241.82177734375, 116.2323753704768, -20.65767833336637, 116.2323753704768
2024-03-03T20:15:10Z, 801.9847412109375, 1458.68603515625, 1238.2332763671875, 116.30834073442568, -20.262678248380777, 116.30834073442568
2024-03-03T20:15:10Z, 798.8320922851562, 1465.4661865234375, 1234.690185546875, 116.43043719602883, -19.881621994585768, 116.43043719602883
2024-03-03T20:15:10Z, 795.6436157226562, 1472.2652587890625, 1231.196044921875, 116.53746626032294, -19.493436730844554, 116.53746626032294
2024-03-03T20:15:10Z, 792.414306640625, 1479.0882568359375, 1227.7508544921875, 116.68812657303508, -19.12014640213585, 116.68812657303508
2024-03-03T20:15:10Z, 789.1433715820312, 1485.93359375, 1224.3465576171875, 116.91879572168475, -18.774453452768576, 116.91879572168475
2024-03-03T20:15:10Z, 785.8236694335938, 1492.80078125, 1220.986083984375, 117.10718599937204, -18.401794916558096, 117.10718599937204
2024-03-03T20:15:10Z, 782.453125, 1499.689208984375, 1217.6708984375, 117.2961090318146, -18.02808794631002, 117.2961090318146
2024-03-03T20:15:11Z, 779.0303344726562, 1506.5985107421875, 1214.39892578125, 117.51288557569247, -17.667085127918163, 117.51288557569247
2024-03-03T20:15:11Z, 775.5548095703125, 1513.52685546875, 1211.166259765625, 117.77494627376751, -17.32967036782495, 117.77494627376751
2024-03-03T20:15:11Z, 772.022705078125, 1520.472412109375, 1207.971435546875, 118.07352116314544, -17.012623231836713, 118.07352116314544
2024-03-03T20:15:11Z, 768.4323120117188, 1527.432373046875, 1204.811767578125, 118.40455311145928, -16.71722267287554, 118.40455311145928
2024-03-03T20:15:11Z, 764.7822265625, 1534.404296875, 1201.6837158203125, 118.76576083552624, -16.445306011828162, 118.76576083552624
2024-03-03T20:15:11Z, 761.0713500976562, 1541.38525390625, 1198.5838623046875, 119.15499965594692, -16.19893425827663, 119.15499965594692
2024-03-03T20:15:11Z, 757.2989501953125, 1548.372802734375, 1195.5086669921875, 119.57016587445698, -15.980275997282428, 119.57016587445698
2024-03-03T20:15:11Z, 753.4642944335938, 1555.3648681640625, 1192.454345703125, 120.00878696257686, -15.791030238401593, 120.00878696257686
2024-03-03T20:15:11Z, 749.5672607421875, 1562.35888671875, 1189.417236328125, 120.46811718426022, -15.632433245873896, 120.46811718426022
2024-03-03T20:15:11Z, 745.6077880859375, 1569.35302734375, 1186.3934326171875, 120.94528786005564, -15.505200482014898, 120.94528786005564
2024-03-03T20:15:11Z, 741.5861206054688, 1576.3453369140625, 1183.3792724609375, 121.43730736710668, -15.409400248716299, 121.43730736710668
2024-03-03T20:15:11Z, 737.5026245117188, 1583.334228515625, 1180.37109375, 121.94132068634026, -15.344694451614183, 121.94132068634026
2024-03-03T20:15:11Z, 733.35791015625, 1590.3182373046875, 1177.365478515625, 122.45451377981834, -15.31005173214388, 122.45451377981834
2024-03-03T20:15:11Z, 729.15283203125, 1597.2958984375, 1174.3587646484375, 122.97403162846786, -15.30145081643154, 122.97403162846786
2024-03-03T20:15:11Z, 724.88818359375, 1604.2659912109375, 1171.3477783203125, 123.49716947737747, -15.311796845476817, 123.49716947737747
2024-03-03T20:15:11Z, 720.56494140625, 1611.2276611328125, 1168.3297119140625, 124.02313502460348, -15.346572753635938, 124.02313502460348
2024-03-03T20:15:11Z, 716.18408203125, 1618.179931640625, 1165.3018798828125, 124.55064419458189, -15.4080564089971, 124.55064419458189
2024-03-03T20:15:12Z, 711.7466430664062, 1625.1220703125, 1162.261474609375, 125.07820800607368, -15.497048651240489, 125.07820800607368
2024-03-03T20:15:12Z, 707.2537841796875, 1632.053466796875, 1159.2061767578125, 125.60417355329969, -15.613960999263597, 125.60417355329969
2024-03-03T20:15:12Z, 702.7066040039062, 1638.97314453125, 1156.1334228515625, 126.12686060972408, -15.758706368154506, 126.12686060972408
2024-03-03T20:15:12Z, 698.1063232421875, 1645.880859375, 1153.0408935546875, 126.64468457145942, -15.930673455982502, 126.64468457145942
2024-03-03T20:15:12Z, 693.4539794921875, 1652.7760009765625, 1149.926513671875, 127.156170117645, -16.12894360230422, 127.156170117645
2024-03-03T20:15:12Z, 688.7509155273438, 1659.657958984375, 1146.7879638671875, 127.65993755006846, -16.352475203271226, 127.65993755006846
2024-03-03T20:15:12Z, 683.9981689453125, 1666.5263671875, 1143.623291015625, 128.15478475543588, -16.600136155028594, 128.15478475543588
2024-03-03T20:15:12Z, 679.1970825195312, 1673.3807373046875, 1140.4305419921875, 128.63960524310173, -16.87075508013367, 128.63960524310173
2024-03-03T20:15:12Z, 674.3488159179688, 1680.2208251953125, 1137.207763671875, 129.1131422582587, -17.163220365299033, 129.1131422582587
2024-03-03T20:15:12Z, 669.45458984375, 1687.0462646484375, 1133.953125, 129.57402976307284, -17.476493821770838, 129.57402976307284
2024-03-03T20:15:12Z, 664.5156860351562, 1693.8565673828125, 1130.6646728515625, 130.0213115310603, -17.809450175883324, 130.0213115310603
2024-03-03T20:15:12Z, 659.5333251953125, 1700.651611328125, 1127.3408203125, 130.4542089206557, -18.160981229443664, 130.4542089206557
2024-03-03T20:15:12Z, 654.5088500976562, 1707.4312744140625, 1123.9798583984375, 130.87206623369875, -18.530036840866963, 130.87206623369875
2024-03-03T20:15:12Z, 649.4437255859375, 1714.195068359375, 1120.580078125, 131.27421411165076, -18.9156198025344, 131.27421411165076
2024-03-03T20:15:12Z, 644.3392333984375, 1720.9429931640625, 1117.1397705078125, 131.66002417710808, -19.31677901060405, 131.66002417710808
2024-03-03T20:15:12Z, 639.1968994140625, 1727.6749267578125, 1113.6575927734375, 132.0288953734238, -19.732640200862157, 132.0288953734238
2024-03-03T20:15:12Z, 634.0181274414062, 1734.3907470703125, 1110.1318359375, 132.3800763797892, -20.162446929858135, 132.3800763797892
2024-03-03T20:15:13Z, 628.8046264648438, 1741.090576171875, 1106.5611572265625, 132.71289783766557, -20.60540518810097, 132.71289783766557
2024-03-03T20:15:13Z, 623.557861328125, 1747.7742919921875, 1102.944091796875, 133.02671770927097, -21.06069706043756, 133.02671770927097
2024-03-03T20:15:13Z, 618.279541015625, 1754.4420166015625, 1099.2791748046875, 133.32092127758008, -21.527496093978325, 133.32092127758008
2024-03-03T20:15:13Z, 612.9713134765625, 1761.093994140625, 1095.565185546875, 133.5948528444326, -22.004975835833697, 133.5948528444326
2024-03-03T20:15:13Z, 607.635009765625, 1767.7303466796875, 1091.8009033203125, 133.84785671166824, -22.49230300292494, 133.84785671166824
2024-03-03T20:15:13Z, 602.2723999023438, 1774.351318359375, 1087.985107421875, 134.0792771811266, -22.98863065179496, 134.0792771811266
2024-03-03T20:15:13Z, 596.8854370117188, 1780.9573974609375, 1084.116943359375, 134.2834725165533, -23.48334466847357, 134.2834725165533
2024-03-03T20:15:13Z, 591.4767456054688, 1787.5501708984375, 1080.198974609375, 134.40953048787506, -23.868570752756874, 134.40953048787506
2024-03-03T20:15:13Z, 586.0489501953125, 1794.133056640625, 1076.2364501953125, 134.4007058834674, -23.988952836878347, 134.4007058834674
2024-03-03T20:15:13Z, 580.6041259765625, 1800.7109375, 1072.2388916015625, 134.23743704154742, -23.723418987610348, 134.23743704154742
2024-03-03T20:15:13Z, 575.1420288085938, 1807.291015625, 1068.2139892578125, 133.97297211688453, -23.12183812363043, 133.97297211688453
2024-03-03T20:15:13Z, 569.6616821289062, 1813.8782958984375, 1064.169921875, 133.68487473769338, -22.36123679539427, 133.68487473769338
2024-03-03T20:15:13Z, 564.1622924804688, 1820.47705078125, 1060.113525390625, 133.4259695870149, -21.632233629805885, 133.4259695870149
2024-03-03T20:15:13Z, 558.6443481445312, 1827.0882568359375, 1056.049072265625, 133.2402704038606, -21.117831592844713, 133.2402704038606
2024-03-03T20:15:13Z, 553.109130859375, 1833.7113037109375, 1051.9769287109375, 133.13668375490818, -20.974650337273737, 133.13668375490818
2024-03-03T20:15:13Z, 547.5563354492188, 1840.3460693359375, 1047.8968505859375, 133.09323009140854, -21.119243734455615, 133.09323009140854
2024-03-03T20:15:13Z, 541.9854125976562, 1846.99169921875, 1043.8094482421875, 133.06600495737686, -21.354195411714883, 133.06600495737686
2024-03-03T20:15:14Z, 536.3967895507812, 1853.6468505859375, 1039.7178955078125, 133.04981740904395, -21.492523817880567, 133.04981740904395
2024-03-03T20:15:14Z, 530.78857421875, 1860.311279296875, 1035.6268310546875, 133.0643383912194, -21.38424312142106, 133.0643383912194
2024-03-03T20:15:14Z, 525.1575927734375, 1866.9866943359375, 1031.53759765625, 133.10292896002997, -21.11989601752135, 133.10292896002997
2024-03-03T20:15:14Z, 519.5027465820312, 1873.674072265625, 1027.4505615234375, 133.14370518937494, -20.89984098284188, 133.14370518937494
2024-03-03T20:15:14Z, 513.826416015625, 1880.3712158203125, 1023.3631591796875, 133.124785565374, -20.90710488902419, 133.124785565374
2024-03-03T20:15:14Z, 508.1334228515625, 1887.076171875, 1019.269775390625, 132.95546517584938, -21.275764349475626, 132.95546517584938
2024-03-03T20:15:14Z, 502.4267883300781, 1893.78955078125, 1015.1640014648438, 132.63857171911746, -21.896737828056505, 132.63857171911746
2024-03-03T20:15:14Z, 496.7095031738281, 1900.5120849609375, 1011.0411376953125, 132.26006995607204, -22.565787300657814, 132.26006995607204
2024-03-03T20:15:14Z, 490.9828186035156, 1907.2435302734375, 1006.899658203125, 131.91649778044206, -23.09718626336856, 131.91649778044206
2024-03-03T20:15:14Z, 485.2417297363281, 1913.980224609375, 1002.7467651367188, 131.72868123864507, -23.334369704939128, 131.72868123864507
2024-03-03T20:15:14Z, 479.4797668457031, 1920.7152099609375, 998.5960693359375, 131.84013626552132, -23.19838234611147, 131.84013626552132
2024-03-03T20:15:14Z, 473.689453125, 1927.439453125, 994.460693359375, 132.42784672284424, -22.771486985249208, 132.42784672284424
2024-03-03T20:15:14Z, 467.8660583496094, 1934.1529541015625, 990.3377685546875, 133.39482392439962, -22.164976432235832, 133.39482392439962
2024-03-03T20:15:14Z, 462.0041198730469, 1940.8548583984375, 986.2249145507812, 134.54784181856783, -21.475327109097766, 134.54784181856783
2024-03-03T20:15:14Z, 456.0943603515625, 1947.5394287109375, 982.1290893554688, 135.67904408852698, -20.812692891674395, 135.67904408852698
2024-03-03T20:15:14Z, 450.13616943359375, 1954.208740234375, 978.0460205078125, 136.66114332890479, -20.378724869926586, 136.66114332890479
2024-03-03T20:15:14Z, 444.1328430175781, 1960.859130859375, 973.9711303710938, 137.44197055482064, -20.081249641005023, 137.44197055482064
2024-03-03T20:15:15Z, 438.0806884765625, 1967.4825439453125, 969.9094848632812, 138.13899135962043, -19.81816612210176, 138.13899135962043
2024-03-03T20:15:15Z, 431.9814758300781, 1974.0772705078125, 965.8585205078125, 138.8484840898447, -19.638680703544875, 138.8484840898447
2024-03-03T20:15:15Z, 425.83148193359375, 1980.63671875, 961.820068359375, 139.53289636543664, -19.458684728347528, 139.53289636543664
2024-03-03T20:15:15Z, 419.63330078125, 1987.160400390625, 957.791259765625, 140.220860339397, -19.35544812659008, 140.220860339397
2024-03-03T20:15:15Z, 413.38226318359375, 1993.6400146484375, 953.773681640625, 140.88023314149171, -19.227131070200343, 140.88023314149171
2024-03-03T20:15:15Z, 407.0728454589844, 2000.06640625, 949.7697143554688, 141.5291694145346, -19.145329309605685, 141.5291694145346
2024-03-03T20:15:15Z, 400.6993713378906, 2006.430419921875, 945.7805786132812, 142.15541579915475, -19.04584931189174, 142.15541579915475
2024-03-03T20:15:15Z, 394.252197265625, 2012.7276611328125, 941.807373046875, 142.76558391846865, -18.949388257790943, 142.76558391846865
2024-03-03T20:15:15Z, 387.7204895019531, 2018.95458984375, 937.8506469726562, 143.35735150815856, -18.849218410970828, 143.35735150815856
2024-03-03T20:15:15Z, 381.0999755859375, 2025.103759765625, 933.9150390625, 143.9354450591301, -18.736539072685837, 143.9354450591301
2024-03-03T20:15:15Z, 374.38653564453125, 2031.16845703125, 930.0061645507812, 144.50206389229604, -18.60338453481644, 144.50206389229604
2024-03-03T20:15:15Z, 367.57647705078125, 2037.142822265625, 926.1309814453125, 145.05813691338344, -18.44294509876013, 145.05813691338344
2024-03-03T20:15:15Z, 360.6673889160156, 2043.023193359375, 922.2971801757812, 145.60426517903932, -18.249328018810488, 145.60426517903932
2024-03-03T20:15:15Z, 353.6609191894531, 2048.811767578125, 918.5106201171875, 146.142552387528, -18.016382709619908, 146.142552387528
2024-03-03T20:15:15Z, 346.55950927734375, 2054.512451171875, 914.777099609375, 146.6720969538791, -17.739297302918125, 146.6720969538791
2024-03-03T20:15:15Z, 339.36572265625, 2060.12939453125, 911.1026000976562, 147.18753034940497, -17.415590732489125, 147.18753034940497
2024-03-03T20:15:15Z, 332.0823669433594, 2065.66748046875, 907.4935302734375, 147.68224095098898, -17.044014781262092, 147.68224095098898
2024-03-03T20:15:16Z, 324.7125549316406, 2071.131591796875, 903.9562377929688, 148.14945321097454, -16.62417671335975, 148.14945321097454
2024-03-03T20:15:16Z, 317.259765625, 2076.528076171875, 900.4970092773438, 148.58245988359667, -16.15644877409186, 148.58245988359667
2024-03-03T20:15:16Z, 309.7279052734375, 2081.86328125, 897.1220092773438, 148.97462202498212, -15.641939161651262, 148.97462202498212
2024-03-03T20:15:16Z, 302.121337890625, 2087.144287109375, 893.8369750976562, 149.319355332771, -15.08246641390447, 149.319355332771
2024-03-03T20:15:16Z, 294.4449768066406, 2092.378662109375, 890.6473999023438, 149.61013014611677, -14.480636248019843, 149.61013014611677
2024-03-03T20:15:16Z, 286.7042236328125, 2097.57470703125, 887.5578002929688, 149.84075831363143, -13.839975602930048, 149.84075831363143
2024-03-03T20:15:16Z, 278.9063415527344, 2102.74267578125, 884.5694580078125, 150.03386142184604, -13.173821276763181, 150.03386142184604
2024-03-03T20:15:16Z, 271.0570983886719, 2107.889892578125, 881.6786499023438, 150.21087260437608, -12.492191449484357, 150.21087260437608
2024-03-03T20:15:16Z, 263.1599426269531, 2113.02099609375, 878.8941040039062, 150.2604734381287, -11.77193263358088, 150.2604734381287
2024-03-03T20:15:16Z, 255.2213897705078, 2118.14501953125, 876.2194213867188, 150.27141540117907, -11.042822746286713, 150.27141540117907
2024-03-03T20:15:16Z, 247.24636840820312, 2123.26611328125, 873.6494750976562, 150.27784943937723, -10.30905637752589, 150.27784943937723
2024-03-03T20:15:16Z, 239.2395477294922, 2128.390380859375, 871.1896362304688, 150.1919666407535, -9.566263913776893, 150.1919666407535
2024-03-03T20:15:16Z, 231.20530700683594, 2133.521484375, 868.8355712890625, 150.10417138916213, -8.822279582017732, 150.10417138916213
2024-03-03T20:15:16Z, 223.1481170654297, 2138.66455078125, 866.5923461914062, 149.9356979430946, -8.08163179766812, 149.9356979430946
2024-03-03T20:15:16Z, 215.0718536376953, 2143.82275390625, 864.45263671875, 149.80261853730607, -7.338405616906829, 149.80261853730607
2024-03-03T20:15:16Z, 206.97776794433594, 2148.99658203125, 862.4078369140625, 149.65411656437166, -6.5946970540354055, 149.65411656437166
2024-03-03T20:15:16Z, 198.86672973632812, 2154.1865234375, 860.449951171875, 149.49893466642897, -5.855138257971587, 149.49893466642897
2024-03-03T20:15:17Z, 190.7386932373047, 2159.391357421875, 858.5720825195312, 149.3566618260176, -5.132824408901583, 149.3566618260176
2024-03-03T20:15:17Z, 182.59310913085938, 2164.60986328125, 856.7675170898438, 149.2338277039841, -4.443147765006838, 149.2338277039841
2024-03-03T20:15:17Z, 174.42906188964844, 2169.840087890625, 855.02978515625, 149.13873781035917, -3.779217519188456, 149.13873781035917
2024-03-03T20:15:17Z, 166.2449493408203, 2175.080322265625, 853.349609375, 149.08029871182055, -3.2542449107130444, 149.08029871182055
2024-03-03T20:15:17Z, 158.04066467285156, 2180.32763671875, 851.7138671875, 149.04957652093384, -3.022437468349509, 149.04957652093384
2024-03-03T20:15:17Z, 149.81800842285156, 2185.580322265625, 850.1052856445312, 149.01716044313295, -3.264693819482695, 149.01716044313295
2024-03-03T20:15:17Z, 141.57862854003906, 2190.8369140625, 848.5116577148438, 148.95907651443116, -3.968902971497111, 148.95907651443116
2024-03-03T20:15:17Z, 133.3231201171875, 2196.094970703125, 846.9241333007812, 148.8201094855781, -4.886140174195525, 148.8201094855781
2024-03-03T20:15:17Z, 125.05558013916016, 2201.35302734375, 845.3429565429688, 148.59286909189177, -5.772426801556849, 148.59286909189177
2024-03-03T20:15:17Z, 116.7794418334961, 2206.6123046875, 843.7635498046875, 148.43802870340758, -6.514937093115758, 148.43802870340758
2024-03-03T20:15:17Z, 108.49694061279297, 2211.874267578125, 842.1714477539062, 148.29652084418325, -7.1619284697925085, 148.29652084418325
2024-03-03T20:15:17Z, 100.21025848388672, 2217.14013671875, 840.5624389648438, 148.20573396973543, -7.603513433125349, 148.20573396973543
2024-03-03T20:15:17Z, 91.91751861572266, 2222.408935546875, 838.9406127929688, 148.2635310304921, -7.681192320782259, 148.2635310304921
2024-03-03T20:15:17Z, 83.61306762695312, 2227.679443359375, 837.31298828125, 148.54324093738245, -7.343638395584705, 148.54324093738245
2024-03-03T20:15:17Z, 75.2891616821289, 2232.950439453125, 835.6861572265625, 148.98947085623772, -6.732379153550876, 148.98947085623772
2024-03-03T20:15:17Z, 66.9405517578125, 2238.21826171875, 834.0717163085938, 149.49390764719985, -6.055905692208588, 149.49390764719985
2024-03-03T20:15:17Z, 58.56595993041992, 2243.483642578125, 832.4671630859375, 150.00475115560343, -5.565893406999888, 150.00475115560343
2024-03-03T20:15:18Z, 50.166500091552734, 2248.745361328125, 830.8687744140625, 150.30383147897996, -5.3522497855169435, 150.30383147897996
2024-03-03T20:15:18Z, 41.74802017211914, 2254.005126953125, 829.2709350585938, 150.23010641707884, -5.490324620909689, 150.23010641707884
2024-03-03T20:15:18Z, 33.31599807739258, 2259.266357421875, 827.6680908203125, 149.8427663892474, -5.863492433100159, 149.8427663892474
2024-03-03T20:15:18Z, 24.871437072753906, 2264.5341796875, 826.0552978515625, 149.30987503020302, -6.2720231228315475, 149.30987503020302
2024-03-03T20:15:18Z, 16.415327072143555, 2269.8046875, 824.4348754882812, 148.81020571128155, -6.544796118846115, 148.81020571128155
2024-03-03T20:15:18Z, 7.949694633483887, 2275.068359375, 822.8128662109375, 148.57832078895964, -6.65305504407764, 148.57832078895964
2024-03-03T20:15:18Z, -0.5284994840621948, 2280.311279296875, 821.1949462890625, 148.79575303099782, -6.591573950037417, 148.79575303099782
2024-03-03T20:15:18Z, -9.02876091003418, 2285.516845703125, 819.5865478515625, 149.5387683296685, -6.372797014506385, 149.5387683296685
2024-03-03T20:15:18Z, -17.567346572875977, 2290.673828125, 817.9915161132812, 150.65673369301618, -6.04347944367422, 150.65673369301618
2024-03-03T20:15:18Z, -26.153724670410156, 2295.76611328125, 816.4156494140625, 151.9273401239353, -5.660537203894639, 151.9273401239353
2024-03-03T20:15:18Z, -34.79457473754883, 2300.77978515625, 814.864990234375, 153.11161296374547, -5.280393634127471, 153.11161296374547
2024-03-03T20:15:18Z, -43.4930534362793, 2305.70458984375, 813.3462524414062, 154.02262359524178, -4.959271863412497, 154.02262359524178
2024-03-03T20:15:18Z, -52.2510871887207, 2310.531982421875, 811.86767578125, 154.74477949618722, -4.667999726917773, 154.74477949618722
2024-03-03T20:15:18Z, -61.06758117675781, 2315.259521484375, 810.4357299804688, 155.41334573290476, -4.353580933099522, 155.41334573290476
2024-03-03T20:15:18Z, -69.94088745117188, 2319.888427734375, 809.056640625, 156.04711898599024, -4.005617372720045, 156.04711898599024
2024-03-03T20:15:18Z, -78.86902618408203, 2324.4208984375, 807.7369384765625, 156.6457714063635, -3.620685840344698, 156.6457714063635
2024-03-03T20:15:18Z, -87.8496322631836, 2328.859375, 806.4832763671875, 157.20673484289665, -3.1968636377221213, 157.20673484289665
2024-03-03T20:15:19Z, -96.87992858886719, 2333.207763671875, 805.302734375, 157.7267717859231, -2.7332387211547067, 157.7267717859231
2024-03-03T20:15:19Z, -105.95672607421875, 2337.470458984375, 804.2020263671875, 158.20230321631772, -2.229704795823496, 158.20230321631772
2024-03-03T20:15:19Z, -115.07642364501953, 2341.653076171875, 803.1879272460938, 158.62947690738866, -1.686892907174775, 158.62947690738866
2024-03-03T20:15:19Z, -124.2350082397461, 2345.76171875, 802.2667236328125, 159.0041947456339, -1.106157887263439, 159.0041947456339
2024-03-03T20:15:19Z, -133.42808532714844, 2349.8037109375, 801.4442749023438, 159.3220717496063, -0.48956688216962213, 159.3220717496063
2024-03-03T20:15:19Z, -142.65087890625, 2353.786865234375, 800.7257690429688, 159.57854535294027, 0.16004842106653702, 159.57854535294027
2024-03-03T20:15:19Z, -151.89810180664062, 2357.72119140625, 800.1146240234375, 159.78566400933173, 0.8331834540292087, 159.78566400933173
2024-03-03T20:15:19Z, -161.1655731201172, 2361.615478515625, 799.6083984375, 159.95225232318836, 1.5239905475924436, 159.95225232318836
2024-03-03T20:15:19Z, -170.44801330566406, 2365.4775390625, 799.2140502929688, 160.0425474240159, 2.23859321981121, 160.0425474240159
2024-03-03T20:15:19Z, -179.74205017089844, 2369.313720703125, 798.9285888671875, 160.11819859926297, 2.9574253799518004, 160.11819859926297
2024-03-03T20:15:19Z, -189.0428924560547, 2373.130126953125, 798.7575073242188, 160.10388252276263, 3.689888463241621, 160.10388252276263
2024-03-03T20:15:19Z, -198.347900390625, 2376.931884765625, 798.6968994140625, 160.08785889896978, 4.422251228128007, 160.08785889896978
2024-03-03T20:15:19Z, -207.65260314941406, 2380.723876953125, 798.751708984375, 159.99425798658393, 5.156167434163748, 159.99425798658393
2024-03-03T20:15:19Z, -216.95530700683594, 2384.510986328125, 798.9150390625, 159.93676145415077, 5.889272982122373, 159.93676145415077
2024-03-03T20:15:19Z, -226.2562713623047, 2388.295166015625, 799.1785278320312, 159.8740466571917, 6.623865803772768, 159.8740466571917
2024-03-03T20:15:19Z, -235.5562744140625, 2392.078125, 799.534423828125, 159.83631669221654, 7.356024089870877, 159.83631669221654
2024-03-03T20:15:19Z, -244.8571319580078, 2395.85888671875, 799.9760131835938, 159.80847684115957, 8.074388382053321, 159.80847684115957
2024-03-03T20:15:20Z, -254.16064453125, 2399.636474609375, 800.4963989257812, 159.80417382198246, 8.751825326955403, 159.80417382198246
2024-03-03T20:15:20Z, -263.4699401855469, 2403.40966796875, 801.0856323242188, 159.82133125717755, 9.2722234162342, 159.82133125717755
2024-03-03T20:15:20Z, -272.786865234375, 2407.177734375, 801.7296142578125, 159.8439391833303, 9.476127614847528, 159.8439391833303
2024-03-03T20:15:20Z, -282.1132507324219, 2410.9404296875, 802.4082641601562, 159.8285439369411, 9.183263617389368, 159.8285439369411
2024-03-03T20:15:20Z, -291.4540710449219, 2414.69970703125, 803.10302734375, 159.70508143750394, 8.446555144643561, 159.70508143750394
2024-03-03T20:15:20Z, -300.80731201171875, 2418.45654296875, 803.8097534179688, 159.46233651440167, 7.529253055148033, 159.46233651440167
2024-03-03T20:15:20Z, -310.1683349609375, 2422.21142578125, 804.5181274414062, 159.25326442390758, 6.654611046547934, 159.25326442390758
2024-03-03T20:15:20Z, -319.5349426269531, 2425.964599609375, 805.2257080078125, 159.03094176642367, 5.9567987935780575, 159.03094176642367
2024-03-03T20:15:20Z, -328.9076843261719, 2429.72216796875, 805.9185791015625, 158.87715322707166, 5.307267013416886, 158.87715322707166
2024-03-03T20:15:20Z, -338.286865234375, 2433.48681640625, 806.58642578125, 158.71574219660593, 4.693816988206775, 158.71574219660593
2024-03-03T20:15:20Z, -347.6722106933594, 2437.260498046875, 807.2257690429688, 158.5254667867077, 4.110692149137876, 158.5254667867077
2024-03-03T20:15:20Z, -357.06243896484375, 2441.04443359375, 807.8380737304688, 158.2954943173534, 3.55641952322699, 158.2954943173534
2024-03-03T20:15:20Z, -366.4579772949219, 2444.845458984375, 808.4152221679688, 158.0547984510021, 3.0186317723213425, 158.0547984510021
2024-03-03T20:15:20Z, -375.8603210449219, 2448.6689453125, 808.9539184570312, 157.78411805419452, 2.5115186144216337, 157.78411805419452
2024-03-03T20:15:20Z, -385.27001953125, 2452.51953125, 809.4528198242188, 157.48085765504595, 2.0412368247343955, 157.48085765504595
2024-03-03T20:15:20Z, -394.68597412109375, 2456.40087890625, 809.9114379882812, 157.14701166879408, 1.6142528848563373, 157.14701166879408
2024-03-03T20:15:20Z, -404.1067199707031, 2460.3173828125, 810.3305053710938, 156.79551647372688, 1.2417127030175683, 156.79551647372688
2024-03-03T20:15:21Z, -413.53009033203125, 2464.2685546875, 810.7140502929688, 156.5447802292957, 1.0034648191535338, 156.5447802292957
2024-03-03T20:15:21Z, -422.95452880859375, 2468.249755859375, 811.0687255859375, 156.57289328791947, 0.9772828897958766, 156.57289328791947
2024-03-03T20:15:21Z, -432.3817443847656, 2472.251953125, 811.4026489257812, 156.97715852451418, 1.1613572349796608, 156.97715852451418
2024-03-03T20:15:21Z, -441.8166809082031, 2476.263427734375, 811.7232666015625, 157.59423879526815, 1.4501034821419498, 157.59423879526815
2024-03-03T20:15:21Z, -451.26141357421875, 2480.27392578125, 812.038330078125, 158.20805423559887, 1.7164390248637806, 158.20805423559887
2024-03-03T20:15:21Z, -460.7143859863281, 2484.285888671875, 812.3458862304688, 158.6461152482068, 1.820945721641736, 158.6461152482068
2024-03-03T20:15:21Z, -470.17578125, 2488.298828125, 812.64404296875, 158.9638556483958, 1.8652435538340884, 158.9638556483958
2024-03-03T20:15:21Z, -479.6459655761719, 2492.304443359375, 812.9332275390625, 159.33775386394063, 1.886973800678484, 159.33775386394063
2024-03-03T20:15:21Z, -489.1266784667969, 2496.29345703125, 813.2124633789062, 159.66901803868626, 1.9134704523464907, 159.66901803868626
2024-03-03T20:15:21Z, -498.6166076660156, 2500.26171875, 813.4835815429688, 159.7662662720889, 1.9528659162620663, 159.7662662720889
2024-03-03T20:15:21Z, -508.11407470703125, 2504.21435546875, 813.7445068359375, 159.7266784956595, 1.9400176901030377, 159.7266784956595
